Initializing SD card...Card failed, or not present
How many points are to be entered? :
3
Enter point 0:
3404713 1844751	LAT: -3404713	LONG: 1844751

Enter point 1:
3404718 1844744	LAT: -3404718	LONG: 1844744

Enter point 2:
3404722 1844757	LAT: -3404722	LONG: 1844757
‚‚b

ªÊj
$GPGSA,A,3,08,21,07,01,13,17,30,14,,,,,2.6,1.4,2.2*3C
$BDGSA,A,3,13,08,,,,,,,,,,,2.6,1.4,2.2*28
$GPGSV,2,1,08,01,63,0,33*7D
$BDGSV,1,1,03,05,,,29,08,30,128,,13,36,114,32*67
$GNRMC,125832.000,A,3402.8209,S,01826.8548,E,0.00,0.00,100922,,,A*60
datalog.txtFile Does NOT exist
Error opening datalog for header
$GNVTG,0.00,T,,M,0.00,N,0.00,K,A*23
$GNZDA,125832.000,10,09,2022,00,00*4D
$GPTXT,01,01,01,ANTENNA OK*35
$GNGGA,125833.000,3402.8209,S,01826.8548,E,1,08,1.8,59.6,M,0.0,M,,*50
$GNGLL,3402.8209,S,01826.8548,E,125833.000,A,A*5E
$GPGSA,A,3,08,21,07,01,13,17,30,,,,,,3.2,1.8,2.6*34
$BDGSA,A,3,13,,,,,,,,,,,,3.2,1.8,2.6*2D
$GPGSV,2,1,08,01,63,047,39,07,60,343,35,08,35,133,37,13,08,231,23*7C
$GPGSV,2,2,08,14,39,228,06,17,27,288,22,21,62,100,39,30,60,260,33*7C
$BDGSV,1,1,03,05,,,29,08,30,128,,13,36,114,32*67
$GNRMC,125833.000,A,3402.8209,S,01826.8548,E,0.00,0.00,100922,,,A*61
Target
Lat#-3404722#Long#1844757#Bearing#-177.27
Current:
Lat#-3404701#Long#1844758#Bearing#0.00
Errors:
Dist#23#Bearing_Error#-177.27
Motors:
Throttle%#100#Steering%#100#Left_DC#50.00#Right_DC#100.00


$GNVTG,0.00,T,,M,0.00,N,0.00,K,A*23
$GNZDA,125833.000,10,09,2022,00,00*4C
$GPTXT,01,01,01,ANTENNA OK*35
$GNGGA,125834.000,34$GNGGA,125836.000,3402.8209,S,01826.8548,E,1,08,1.8,59.6,M,0.0,M,,*55
$GNGLL,3402.8209,S,01826.8548,E,125836.000,A,A*5B
$GPGSA,A,3,08,21,07,01,13,17,30,,,,,,3.2,1.8,2.6*34
$BDGSA,A,3,13,,,,,,,,,,,,3.2,1.8,2.6*2D
$GPGSV,2,1,08,01,63,047,38,07,60,343,36,08,35,133,36,13,08,231,23*7F
$GPGSV,2,2,08,14,39,228,06,17,27,288,24,21,62,100,39,30,60,260,33*7A
$BDGSV,1,1,03,05,,,29,08,30,128,,13,36,114,31*64
$GNRMC,125836.000,A,3402.8209,S,01826.8548,E,0.00,0.00,100922,,,A*64
Target
Lat#-3404722#Long#1844757#Bearing#-177.27
Current:
Lat#-3404701#Long#1844758#Bearing#0.00
Errors:
Dist#23#Bearing_Error#-177.27
Motors:
Throttle%#100#Steering%#100#Left_DC#50.00#Right_DC#100.00


$GNVTG,0.00,T,,M,0.00,N,0.00,K,A*23
$GNZDA,125836.000,10,09,2022,00,00*49
$GPTXT,01,01,01,ANTENNA OK*35
$GNGGA,125837.000,34$GNGGA,125839.000,3402.8209,S,01826.8548,E,1,08,1.8,59.6,M,0.0,M,,*5A
$GNGLL,3402.8209,S,01826.8548,E,125839.000,A,A*54
$GPGSA,A,3,08,21,07,01,13,17,30,,,,,,3.2,1.8,2.6*34
$BDGSA,A,3,13,,,,,,,,,,,,3.2,1.8,2.6*2D
$GPGSV,2,1,08,01,63,047,39,07,60,343,36,08,35,133,37,13,08,231,21*7D
$GPGSV,2,2,08,14,39,228,09,17,27,288,26,21,62,100,39,30,60,260,32*76
$BDGSV,1,1,03,05,,,29,08,30,128,,13,36,114,31*64
$GNRMC,125839.000,A,3402.8209,S,01826.8548,E,0.00,0.00,100922,,,A*6B
Target
Lat#-3404722#Long#1844757#Bearing#-177.27
Current:
Lat#-3404701#Long#1844758#Bearing#0.00
Errors:
Dist#23#Bearing_Error#-177.27
Motors:
Throttle%#100#Steering%#100#Left_DC#50.00#Right_DC#100.00


$GNVTG,0.00,T,,M,0.00,N,0.00,K,A*23
$GNZDA,125839.000,10,09,2022,00,00*46
$GPTXT,01,01,01,ANTENNA OK*35
$GNGGA,125840.000,34$GNGGA,125842.000,3402.8209,S,01826.8548,E,1,08,1.8,59.6,M,0.0,M,,*56
$GNGLL,3402.8209,S,01826.8548,E,125842.000,A,A*58
$GPGSA,A,3,08,21,07,01,13,17,30,,,,,,3.2,1.8,2.6*34
$BDGSA,A,3,13,,,,,,,,,,,,3.2,1.8,2.6*2D
$GPGSV,2,1,08,01,63,047,38,07,60,343,36,08,35,133,37,13,08,231,21*7C
$GPGSV,2,2,08,14,39,228,09,17,27,288,28,21,62,100,39,30,60,260,33*79
$BDGSV,1,1,03,05,,,29,08,30,128,,13,36,114,31*64
$GNRMC,125842.000,A,3402.8209,S,01826.8548,E,0.00,0.00,100922,,,A*67
Target
Lat#-3404722#Long#1844757#Bearing#-177.27
Current:
Lat#-3404701#Long#1844758#Bearing#0.00
Errors:
Dist#23#Bearing_Error#-177.27
Motors:
Throttle%#100#Steering%#100#Left_DC#50.00#Right_DC#100.00


$GNVTG,0.00,T,,M,0.00,N,0.00,K,A*23
$GNZDA,125842.000,10,09,2022,00,00*4A
$GPTXT,01,01,01,ANTENNA OK*35
$GNGGA,125843.000,34$GNGGA,125845.000,3402.8209,S,01826.8548,E,1,08,1.8,59.5,M,0.0,M,,*52
$GNGLL,3402.8209,S,01826.8548,E,125845.000,A,A*5F
$GPGSA,A,3,08,21,07,01,13,17,30,,,,,,3.2,1.8,2.6*34
$BDGSA,A,3,13,,,,,,,,,,,,3.2,1.8,2.6*2D
$GPGSV,2,1,08,01,63,047,38,07,60,343,31,08,35,133,37,13,08,231,21*7B
$GPGSV,2,2,08,14,39,228,15,17,27,288,26,21,62,100,39,30,60,260,33*7A
$BDGSV,1,1,03,05,,,29,08,30,128,17,13,36,114,31*62
$GNRMC,125845.000,A,3402.8209,S,01826.8548,E,0.00,0.00,100922,,,A*60
Target
Lat#-3404722#Long#1844757#Bearing#-177.27
Current:
Lat#-3404701#Long#1844758#Bearing#0.00
Errors:
Dist#23#Bearing_Error#-177.27
Motors:
Throttle%#100#Steering%#100#Left_DC#50.00#Right_DC#100.00


$GNVTG,0.00,T,,M,0.00,N,0.00,K,A*23
$GNZDA,125845.000,10,09,2022,00,00*4D
$GPTXT,01,01,01,ANTENNA OK*35
$GNGGA,125846.000,34$GNGGA,125848.000,3402.8209,S,01826.8548,E,1,10,1.4,59.5,M,0.0,M,,*5A
$GNGLL,3402.8209,S,01826.8548,E,125848.000,A,A*52
$GPGSA,A,3,08,21,07,01,13,17,30,14,,,,,2.6,1.4,2.2*3C
$BDGSA,A,3,13,08,,,,,,,,,,,2.6,1.4,2.2*28
$GPGSV,2,1,08,01,63,048,37,07,60,343,32,08,35,133,35,13,08,231,21*7A
$GPGSV,2,2,08,14,39,228,18,17,27,288,24,21,62,100,35,30,60,260,34*7E
$BDGSV,1,1,03,05,,,29,08,30,128,17,13,36,114,30*63
$GNRMC,125848.000,A,3402.8209,S,01826.8548,E,0.00,0.00,100922,,,A*6D
Target
Lat#-3404722#Long#1844757#Bearing#-177.27
Current:
Lat#-3404701#Long#1844758#Bearing#0.00
Errors:
Dist#23#Bearing_Error#-177.27
Motors:
Throttle%#100#Steering%#100#Left_DC#50.00#Right_DC#100.00


$GNVTG,0.00,T,,M,0.00,N,0.00,K,A*23
$GNZDA,125848.000,10,09,2022,00,00*40
$GPTXT,01,01,01,ANTENNA OK*35
$GNGGA,125849.000,34$GNGGA,125851.000,3402.8209,S,01826.8548,E,1,10,1.4,59.5,M,0.0,M,,*52
$GNGLL,3402.8209,S,01826.8548,E,125851.000,A,A*5A
$GPGSA,A,3,08,21,07,01,13,17,30,14,,,,,2.6,1.4,2.2*3C
$BDGSA,A,3,13,08,,,,,,,,,,,2.6,1.4,2.2*28
$GPGSV,2,1,08,01,63,048,34,07,60,343,29,08,35,133,35,13,08,231,21*73
$GPGSV,2,2,08,14,39,228,29,17,27,288,26,21,62,100,37,30,60,260,29*70
$BDGSV,1,1,03,05,,,29,08,30,128,12,13,36,114,33*65
$GNRMC,125851.000,A,3402.8209,S,01826.8548,E,0.00,0.00,100922,,,A*65
Target
Lat#-3404722#Long#1844757#Bearing#-177.27
Current:
Lat#-3404701#Long#1844758#Bearing#0.00
Errors:
Dist#23#Bearing_Error#-177.27
Motors:
Throttle%#100#Steering%#100#Left_DC#50.00#Right_DC#100.00


$GNVTG,0.00,T,,M,0.00,N,0.00,K,A*23
$GNZDA,125851.000,10,09,2022,00,00*48
$GPTXT,01,01,01,ANTENNA OK*35
$GNGGA,125852.000,34$GNGGA,125854.000,3402.8208,S,01826.8548,E,1,10,1.4,59.7,M,0.0,M,,*54
$GNGLL,3402.8208,S,01826.8548,E,125854.000,A,A*5E
$GPGSA,A,3,08,21,07,01,13,17,30,14,,,,,2.6,1.4,2.2*3C
$BDGSA,A,3,13,08,,,,,,,,,,,2.6,1.4,2.2*28
$GPGSV,2,1,08,01,63,048,28,07,60,343,29,08,35,133,29,13,08,231,21*73
$GPGSV,2,2,08,14,39,228,24,17,27,288,26,21,62,101,30,30,60,260,26*74
$BDGSV,1,1,03,05,,,29,08,30,128,12,13,36,114,26*61
$GNRMC,125854.000,A,3402.8208,S,01826.8548,E,0.03,0.00,100922,,,A*62
Target
Lat#-3404722#Long#1844757#Bearing#-177.27
Current:
Lat#-3404701#Long#1844758#Bearing#0.00
Errors:
Dist#23#Bearing_Error#-177.27
Motors:
Throttle%#100#Steering%#100#Left_DC#50.00#Right_DC#100.00


$GNVTG,0.00,T,,M,0.03,N,0.06,K,A*26
$GNZDA,125854.000,10,09,2022,00,00*4D
$GPTXT,01,01,01,ANTENNA OK*35
$GNGGA,125855.000,34$GNGGA,125857.000,3402.8208,S,01826.8548,E,1,10,1.4,59.9,M,0.0,M,,*59
$GNGLL,3402.8208,S,01826.8548,E,125857.000,A,A*5D
$GPGSA,A,3,08,21,07,01,13,17,30,14,,,,,2.6,1.4,2.2*3C
$BDGSA,A,3,13,08,,,,,,,,,,,2.6,1.4,2.2*28
$GPGSV,2,1,08,01,63,048,28,07,60,343,27,08,35,133,23,13,08,231,16*73
$GPGSV,2,2,08,14,39,228,20,17,27,287,27,21,62,101,26,30,60,260,19*75
$BDGSV,1,1,03,05,,,27,08,30,128,08,13,36,114,23*61
$GNRMC,125857.000,A,3402.8208,S,01826.8548,E,0.00,0.00,100922,,,A*62
Target
Lat#-3404722#Long#1844757#Bearing#-177.27
Current:
Lat#-3404701#Long#1844758#Bearing#0.00
Errors:
Dist#23#Bearing_Error#-177.27
Motors:
Throttle%#100#Steering%#100#Left_DC#50.00#Right_DC#100.00


$GNVTG,0.00,T,,M,0.00,N,0.00,K,A*23
$GNZDA,125857.000,10,09,2022,00,00*4E
$GPTXT,01,01,01,ANTENNA OK*35
$GNGGA,125858.000,34$GNGGA,125900.000,3402.8227,S,01826.8506,E,1,10,1.4,64.2,M,0.0,M,,*58
$GNGLL,3402.8227,S,01826.8506,E,125900.000,A,A*59
$GPGSA,A,3,08,21,07,01,13,17,30,14,,,,,2.6,1.4,2.2*3C
$BDGSA,A,3,13,08,,,,,,,,,,,2.6,1.4,2.2*28
$GPGSV,2,1,08,01,63,048,25,07,60,343,22,08,35,133,20,13,08,231,16*78
$GPGSV,2,2,08,14,39,228,20,17,27,287,19,21,62,101,24,30,60,260,19*7A
$BDGSV,1,1,03,05,,,27,08,30,128,08,13,36,114,23*61
$GNRMC,125900.000,A,3402.8227,S,01826.8506,E,0.43,0.00,100922,,,A*61
Target
Lat#-3404722#Long#1844757#Bearing#161.57
Current:
Lat#-3404704#Long#1844751#Bearing#0.00
Errors:
Dist#21#Bearing_Error#161.57
Motors:
Throttle%#100#Steering%#100#Left_DC#100.00#Right_DC#50.00


$GNVTG,0.00,T,,M,0.43,N,0.80,K,A*2C
$GNZDA,125900.000,10,09,2022,00,00*4D
$GPTXT,01,01,01,ANTENNA OK*35
$GNGGA,125901.000,34$GNGGA,125903.000,3402.8232,S,01826.8513,E,1,10,1.4,63.7,M,0.0,M,,*59
$GNGLL,3402.8232,S,01826.8513,E,125903.000,A,A*5A
$GPGSA,A,3,08,21,07,01,13,17,30,14,,,,,2.6,1.4,2.2*3C
$BDGSA,A,3,13,08,,,,,,,,,,,2.6,1.4,2.2*28
$GPGSV,2,1,08,01,63,048,23,07,60,343,22,08,35,133,30,13,08,231,24*7E
$GPGSV,2,2,08,14,39,228,25,17,27,287,21,21,62,101,21,30,60,260,19*71
$BDGSV,1,1,03,05,,,10,08,30,128,08,13,36,114,20*66
$GNRMC,125903.000,A,3402.8232,S,01826.8513,E,0.58,0.00,100922,,,A*68
Target
Lat#-3404722#Long#1844757#Bearing#163.61
Current:
Lat#-3404705#Long#1844752#Bearing#0.00
Errors:
Dist#19#Bearing_Error#163.61
Motors:
Throttle%#100#Steering%#100#Left_DC#100.00#Right_DC#50.00


$GNVTG,0.00,T,,M,0.58,N,1.07,K,A*28
$GNZDA,125903.000,10,09,2022,00,00*4E
$GPTXT,01,01,01,ANTENNA OK*35
$GNGGA,125904.000,34$GNGGA,125906.000,3402.8238,S,01826.8519,E,1,10,1.4,63.2,M,0.0,M,,*59
$GNGLL,3402.8238,S,01826.8519,E,125906.000,A,A*5F
$GPGSA,A,3,08,21,07,01,13,17,30,14,,,,,2.6,1.4,2.2*3C
$BDGSA,A,3,13,08,,,,,,,,,,,2.6,1.4,2.2*28
$GPGSV,2,1,08,01,63,048,23,07,60,343,22,08,35,133,31,13,08,231,24*7F
$GPGSV,2,2,08,14,39,228,27,17,27,287,21,21,62,101,23,30,60,260,20*7B
$BDGSV,1,1,03,05,,,16,08,30,128,08,13,36,114,28*68
$GNRMC,125906.000,A,3402.8238,S,01826.8519,E,0.00,0.00,100922,,,A*60
Target
Lat#-3404722#Long#1844757#Bearing#165.96
Current:
Lat#-3404706#Long#1844753#Bearing#0.00
Errors:
Dist#18#Bearing_Error#165.96
Motors:
Throttle%#100#Steering%#100#Left_DC#100.00#Right_DC#50.00


$GNVTG,0.00,T,,M,0.00,N,0.00,K,A*23
$GNZDA,125906.000,10,09,2022,00,00*4B
$GPTXT,01,01,01,ANTENNA OK*35
$GNGGA,125907.000,34$GNGGA,125909.000,3402.8247,S,01826.8520,E,1,09,1.4,63.2,M,0.0,M,,*5C
$GNGLL,3402.8247,S,01826.8520,E,125909.000,A,A*52
$GPGSA,A,3,08,21,07,01,13,17,30,14,,,,,2.6,1.4,2.2*3C
$BDGSA,A,3,13,,,,,,,,,,,,2.6,1.4,2.2*20
$GPGSV,3,1,09,01,63,048,37,07,60,343,23,08,35,133,33,13,08,231,36*7A
$GPGSV,3,2,09,14,39,228,36,17,27,287,22,21,62,101,41,28,,,35*43
$GPGSV,3,3,09,30,60,260,45*40
$BDGSV,1,1,03,05,,,16,08,30,128,08,13,36,114,30*61
$GNRMC,125909.000,A,3402.8247,S,01826.8520,E,0.74,0.00,100922,,,A*6E
Target
Lat#-3404722#Long#1844757#Bearing#165.07
Current:
Lat#-3404707#Long#1844753#Bearing#0.00
Errors:
Dist#17#Bearing_Error#165.07
Motors:
Throttle%#100#Steering%#100#Left_DC#100.00#Right_DC#50.00


$GNVTG,0.00,T,,M,0.74,N,1.37,K,A*25
$GNZDA,125909.000,10,09,2022,00,00*44
$GPTXT,01,01,01,ANTENNA OK*35
$GNGGA,125910.000,34$GNGGA,125912.000,3402.8265,S,01826.8526,E,1,10,1.4,63.3,M,0.0,M,,*59
$GNGLL,3402.8265,S,01826.8526,E,125912.000,A,A*5E
$GPGSA,A,3,08,21,07,01,13,17,30,14,,,,,2.6,1.4,2.2*3C
$BDGSA,A,3,13,08,,,,,,,,,,,2.6,1.4,2.2*28
$GPGSV,3,1,09,01,64,048,39,07,60,343,40,08,35,133,30,13,08,231,36*75
$GPGSV,3,2,09,14,39,228,39,17,27,287,28,21,62,101,39,28,,,34*48
$GPGSV,3,3,09,30,60,261,44*40
$BDGSV,1,1,03,05,,,16,08,30,128,28,13,36,114,28*6A
$GNRMC,125912.000,A,3402.8265,S,01826.8526,E,0.97,0.00,100922,,,A*6F
Target
Lat#-3404722#Long#1844757#Bearing#165.96
Current:
Lat#-3404710#Long#1844754#Bearing#0.00
Errors:
Dist#13#Bearing_Error#165.96
Motors:
Throttle%#100#Steering%#100#Left_DC#100.00#Right_DC#50.00


$GNVTG,0.00,T,,M,0.97,N,1.80,K,A*24
$GNZDA,125912.000,10,09,2022,00,00*4E
$GPTXT,01,01,01,ANTENNA OK*35
$GNGGA,125913.000,34$GNGGA,125915.000,3402.8271,S,01826.8525,E,1,10,1.4,63.4,M,0.0,M,,*5F
$GNGLL,3402.8271,S,01826.8525,E,125915.000,A,A*5F
$GPGSA,A,3,08,21,07,01,13,17,30,14,,,,,2.6,1.4,2.2*3C
$BDGSA,A,3,13,08,,,,,,,,,,,2.6,1.4,2.2*28
$GPGSV,3,1,10,01,64,048,37,07,60,343,37,08,35,133,26,13,08,231,35*77
$GPGSV,3,2,10,14,39,228,35,17,27,287,35,19,05,297,,21,62,101,32*77
$GPGSV,3,3,10,28,,,39,30,60,261,45*49
$BDGSV,1,1,03,05,,,21,08,30,128,22,13,36,114,27*6B
$GNRMC,125915.000,A,3402.8271,S,01826.8525,E,0.00,0.00,100922,,,A*60
Target
Lat#-3404722#Long#1844757#Bearing#164.74
Current:
Lat#-3404711#Long#1844754#Bearing#0.00
Errors:
Dist#12#Bearing_Error#164.74
Motors:
Throttle%#100#Steering%#100#Left_DC#100.00#Right_DC#50.00


$GNVTG,0.00,T,,M,0.00,N,0.00,K,A*23
$GNZDA,125915.000,10,09,2022,00,00*49
$GPTXT,01,01,01,ANTENNA OK*35
$GNGGA,125916.000,34$GNGGA,125918.000,3402.8272,S,01826.8525,E,1,10,1.4,63.6,M,0.0,M,,*53
$GNGLL,3402.8272,S,01826.8525,E,125918.000,A,A*51
$GPGSA,A,3,08,21,07,01,13,17,30,14,,,,,2.6,1.4,2.2*3C
$BDGSA,A,3,13,08,,,,,,,,,,,2.6,1.4,2.2*28
$GPGSV,3,1,10,01,64,048,40,07,60,343,44,08,35,132,26,13,08,231,38*7F
$GPGSV,3,2,10,14,39,228,33,17,27,287,31,19,05,297,,21,62,101,32*75
$GPGSV,3,3,10,28,,,32,30,60,261,45*42
$BDGSV,1,1,03,05,,,21,08,30,128,22,13,36,114,25*69
$GNRMC,125918.000,A,3402.8272,S,01826.8525,E,0.00,0.00,100922,,,A*6E
Target
Lat#-3404722#Long#1844757#Bearing#163.30
Current:
Lat#-3404712#Long#1844754#Bearing#0.00
Errors:
Dist#11#Bearing_Error#163.30
Motors:
Throttle%#100#Steering%#100#Left_DC#100.00#Right_DC#50.00


$GNVTG,0.00,T,,M,0.00,N,0.00,K,A*23
$GNZDA,125918.000,10,09,2022,00,00*44
$GPTXT,01,01,01,ANTENNA OK*35
$GNGGA,125919.000,34$GNGGA,125921.000,3402.8272,S,01826.8528,E,1,10,1.4,63.7,M,0.0,M,,*55
$GNGLL,3402.8272,S,01826.8528,E,125921.000,A,A*56
$GPGSA,A,3,08,21,07,01,13,17,30,14,,,,,2.6,1.4,2.2*3C
$BDGSA,A,3,13,08,,,,,,,,,,,2.6,1.4,2.2*28
$GPGSV,3,1,10,01,64,048,42,07,60,343,43,08,35,132,27,13,08,231,34*77
$GPGSV,3,2,10,14,39,228,31,17,27,287,34,19,05,297,,21,62,101,41*76
$GPGSV,3,3,10,28,,,33,30,60,261,37*46
$BDGSV,1,1,03,05,,,21,08,30,128,22,13,36,114,27*6B
$GNRMC,125921.000,A,3402.8272,S,01826.8528,E,0.00,0.00,100922,,,A*69
Target
Lat#-3404722#Long#1844757#Bearing#163.30
Current:
Lat#-3404712#Long#1844754#Bearing#0.00
Errors:
Dist#11#Bearing_Error#163.30
Motors:
Throttle%#100#Steering%#100#Left_DC#100.00#Right_DC#50.00


$GNVTG,0.00,T,,M,0.00,N,0.00,K,A*23
$GNZDA,125921.000,10,09,2022,00,00*4E
$GPTXT,01,01,01,ANTENNA OK*35
$GNGGA,125922.000,34$GNGGA,125924.000,3402.8271,S,01826.8530,E,1,10,1.4,63.7,M,0.0,M,,*5A
$GNGLL,3402.8271,S,01826.8530,E,125924.000,A,A*59
$GPGSA,A,3,08,21,07,01,13,17,30,14,,,,,2.6,1.4,2.2*3C
$BDGSA,A,3,13,08,,,,,,,,,,,2.6,1.4,2.2*28
$GPGSV,3,1,10,01,64,048,43,07,60,343,43,08,35,132,32,13,08,231,34*72
$GPGSV,3,2,10,14,39,228,32,17,27,287,32,19,05,297,,21,61,101,42*73
$GPGSV,3,3,10,28,,,36,30,60,261,39*4D
$BDGSV,1,1,03,05,,,21,08,30,128,28,13,36,114,28*6E
$GNRMC,125924.000,A,3402.8271,S,01826.8530,E,0.00,0.00,100922,,,A*66
Target
Lat#-3404722#Long#1844757#Bearing#169.70
Current:
Lat#-3404711#Long#1844755#Bearing#0.00
Errors:
Dist#12#Bearing_Error#169.70
Motors:
Throttle%#100#Steering%#100#Left_DC#100.00#Right_DC#50.00


$GNVTG,0.00,T,,M,0.00,N,0.00,K,A*23
$GNZDA,125924.000,10,09,2022,00,00*4B
$GPTXT,01,01,01,ANTENNA OK*35
$GNGGA,125925.000,34$GNGGA,125927.000,3402.8272,S,01826.8531,E,1,10,1.4,63.5,M,0.0,M,,*59
$GNGLL,3402.8272,S,01826.8531,E,125927.000,A,A*58
$GPGSA,A,3,08,21,07,01,13,17,30,14,,,,,2.6,1.4,2.2*3C
$BDGSA,A,3,13,08,,,,,,,,,,,2.6,1.4,2.2*28
$GPGSV,3,1,10,01,64,048,43,07,60,344,43,08,35,132,34,13,08,231,32*75
$GPGSV,3,2,10,14,39,228,31,17,27,287,33,19,05,297,,21,61,101,42*71
$GPGSV,3,3,10,28,,,34,30,60,261,38*4E
$BDGSV,1,1,03,05,,,23,08,30,128,29,13,36,114,28*6D
$GNRMC,125927.000,A,3402.8272,S,01826.8531,E,0.00,0.00,100922,,,A*67
Target
Lat#-3404722#Long#1844757#Bearing#168.69
Current:
Lat#-3404712#Long#1844755#Bearing#0.00
Errors:
Dist#11#Bearing_Error#168.69
Motors:
Throttle%#100#Steering%#100#Left_DC#100.00#Right_DC#50.00


$GNVTG,0.00,T,,M,0.00,N,0.00,K,A*23
$GNZDA,125927.000,10,09,2022,00,00*48
$GPTXT,01,01,01,ANTENNA OK*35
$GNGGA,125928.000,34$GNGGA,125930.000,3402.8273,S,01826.8531,E,1,10,1.4,63.3,M,0.0,M,,*58
$GNGLL,3402.8273,S,01826.8531,E,125930.000,A,A*5F
$GPGSA,A,3,08,21,07,01,13,17,30,14,,,,,2.6,1.4,2.2*3C
$BDGSA,A,3,13,08,,,,,,,,,,,2.6,1.4,2.2*28
$GPGSV,3,1,10,01,64,048,42,07,60,344,43,08,35,132,34,13,08,231,32*74
$GPGSV,3,2,10,14,39,228,33,17,27,287,33,19,05,297,,21,61,101,41*70
$GPGSV,3,3,10,28,,,34,30,60,261,38*4E
$BDGSV,1,1,03,05,,,23,08,30,128,29,13,36,114,28*6D
$GNRMC,125930.000,A,3402.8273,S,01826.8531,E,0.00,0.00,100922,,,A*60
Target
Lat#-3404722#Long#1844757#Bearing#168.69
Current:
Lat#-3404712#Long#1844755#Bearing#0.00
Errors:
Dist#11#Bearing_Error#168.69
Motors:
Throttle%#100#Steering%#100#Left_DC#100.00#Right_DC#50.00


$GNVTG,0.00,T,,M,0.00,N,0.00,K,A*23
$GNZDA,125930.000,10,09,2022,00,00*4E
$GPTXT,01,01,01,ANTENNA OK*35
$GNGGA,125931.000,34$GNGGA,125933.000,3402.8275,S,01826.8531,E,1,10,1.4,63.1,M,0.0,M,,*5F
$GNGLL,3402.8275,S,01826.8531,E,125933.000,A,A*5A
$GPGSA,A,3,08,21,07,01,13,17,30,14,,,,,2.6,1.4,2.2*3C
$BDGSA,A,3,13,08,,,,,,,,,,,2.6,1.4,2.2*28
$GPGSV,3,1,10,01,64,048,43,07,60,344,43,08,35,132,34,13,08,231,31*76
$GPGSV,3,2,10,14,39,228,32,17,27,287,33,19,05,297,,21,61,101,41*71
$GPGSV,3,3,10,28,,,30,30,60,261,38*4A
$BDGSV,1,1,03,05,,,23,08,30,128,29,13,36,114,28*6D
$GNRMC,125933.000,A,3402.8275,S,01826.8531,E,0.00,0.00,100922,,,A*65
Target
Lat#-3404722#Long#1844757#Bearing#168.69
Current:
Lat#-3404712#Long#1844755#Bearing#0.00
Errors:
Dist#11#Bearing_Error#168.69
Motors:
Throttle%#100#Steering%#100#Left_DC#100.00#Right_DC#50.00


$GNVTG,0.00,T,,M,0.00,N,0.00,K,A*23
$GNZDA,125933.000,10,09,2022,00,00*4D
$GPTXT,01,01,01,ANTENNA OK*35
$GNGGA,125934.000,34$GNGGA,125936.000,3402.8277,S,01826.8531,E,1,10,1.4,62.9,M,0.0,M,,*51
$GNGLL,3402.8277,S,01826.8531,E,125936.000,A,A*5D
$GPGSA,A,3,08,21,07,01,13,17,30,14,,,,,2.6,1.4,2.2*3C
$BDGSA,A,3,13,08,,,,,,,,,,,2.6,1.4,2.2*28
$GPGSV,3,1,10,01,64,048,40,07,60,344,43,08,35,132,33,13,08,231,33*70
$GPGSV,3,2,10,14,39,228,31,17,27,287,32,19,05,297,,21,61,101,42*70
$GPGSV,3,3,10,28,,,25,30,60,261,40*41
$BDGSV,1,1,03,05,,,23,08,30,128,29,13,36,114,27*62
$GNRMC,125936.000,A,3402.8277,S,01826.8531,E,0.00,0.00,100922,,,A*62
Target
Lat#-3404722#Long#1844757#Bearing#168.69
Current:
Lat#-3404712#Long#1844755#Bearing#0.00
Errors:
Dist#11#Bearing_Error#168.69
Motors:
Throttle%#100#Steering%#100#Left_DC#100.00#Right_DC#50.00


$GNVTG,0.00,T,,M,0.00,N,0.00,K,A*23
$GNZDA,125936.000,10,09,2022,00,00*48
$GPTXT,01,01,01,ANTENNA OK*35
$GNGGA,125937.000,34$GNGGA,125939.000,3402.8290,S,01826.8529,E,1,10,1.4,61.2,M,0.0,M,,*56
$GNGLL,3402.8290,S,01826.8529,E,125939.000,A,A*52
$GPGSA,A,3,08,21,07,01,13,17,30,14,,,,,2.6,1.4,2.2*3C
$BDGSA,A,3,13,08,,,,,,,,,,,2.6,1.4,2.2*28
$GPGSV,3,1,10,01,64,048,35,07,60,344,40,08,35,132,29,13,08,231,39*70
$GPGSV,3,2,10,14,39,228,32,17,28,287,38,19,05,297,,21,61,101,28*7A
$GPGSV,3,3,10,28,,,34,30,60,261,44*45
$BDGSV,1,1,03,05,,,23,08,30,128,23,13,36,114,22*6D
$GNRMC,125939.000,A,3402.8290,S,01826.8529,E,0.49,0.00,100922,,,A*60
Target
Lat#-3404722#Long#1844757#Bearing#156.80
Current:
Lat#-3404715#Long#1844754#Bearing#0.00
Errors:
Dist#8#Bearing_Error#156.80
Motors:
Throttle%#0#Steering%#100#Left_DC#75.00#Right_DC#75.00


$GNVTG,0.00,T,,M,0.49,N,0.91,K,A*26
$GNZDA,125939.000,10,09,2022,00,00*47
$GPTXT,01,01,01,ANTENNA OK*35
$GNGGA,125940.000,34$GNGGA,125942.000,3402.8288,S,01826.8528,E,1,10,1.4,61.4,M,0.0,M,,*54
$GNGLL,3402.8288,S,01826.8528,E,125942.000,A,A*56
$GPGSA,A,3,08,21,07,01,13,17,30,14,,,,,2.6,1.4,2.2*3C
$BDGSA,A,3,13,08,,,,,,,,,,,2.6,1.4,2.2*28
$GPGSV,3,1,10,01,64,048,25,07,60,344,32,08,35,132,30,13,08,231,31*74
$GPGSV,3,2,10,14,39,228,33,17,28,287,45,19,05,297,,21,61,101,26*7F
$GPGSV,3,3,10,28,,,32,30,60,261,45*42
$BDGSV,1,1,03,05,,,21,08,30,128,23,13,36,114,22*6F
$GNRMC,125942.000,A,3402.8288,S,01826.8528,E,0.00,0.00,100922,,,A*69
Target
Lat#-3404722#Long#1844757#Bearing#159.44
Current:
Lat#-3404714#Long#1844754#Bearing#0.00
Errors:
Dist#9#Bearing_Error#159.44
Motors:
Throttle%#0#Steering%#100#Left_DC#75.00#Right_DC#75.00


$GNVTG,0.00,T,,M,0.00,N,0.00,K,A*23
$GNZDA,125942.000,10,09,2022,00,00*4B
$GPTXT,01,01,01,ANTENNA OK*35
$GNGGA,125943.000,34$GNGGA,125945.000,3402.8294,S,01826.8531,E,1,10,1.4,61.7,M,0.0,M,,*55
$GNGLL,3402.8294,S,01826.8531,E,125945.000,A,A*54
$GPGSA,A,3,08,21,07,01,13,17,30,14,,,,,2.6,1.4,2.2*3C
$BDGSA,A,3,13,08,,,,,,,,,,,2.6,1.4,2.2*28
$GPGSV,3,1,10,01,64,048,25,07,60,344,30,08,35,132,38,13,08,231,23*7D
$GPGSV,3,2,10,14,39,228,37,17,28,287,40,19,05,297,,21,61,101,41*7F
$GPGSV,3,3,10,28,,,31,30,60,261,37*44
$BDGSV,1,1,03,05,,,21,08,30,128,28,13,36,114,25*63
$GNRMC,125945.000,A,3402.8294,S,01826.8531,E,0.00,0.00,100922,,,A*6B
Target
Lat#-3404722#Long#1844757#Bearing#164.05
Current:
Lat#-3404715#Long#1844755#Bearing#0.00
Errors:
Dist#8#Bearing_Error#164.05
Motors:
Throttle%#0#Steering%#100#Left_DC#75.00#Right_DC#75.00


$GNVTG,0.00,T,,M,0.00,N,0.00,K,A*23
$GNZDA,125945.000,10,09,2022,00,00*4C
$GPTXT,01,01,01,ANTENNA OK*35
$GNGGA,125946.000,34$GNGGA,125948.000,3402.8300,S,01826.8527,E,1,10,1.4,61.4,M,0.0,M,,*50
$GNGLL,3402.8300,S,01826.8527,E,125948.000,A,A*52
$GPGSA,A,3,08,21,07,01,13,17,30,14,,,,,2.6,1.4,2.2*3C
$BDGSA,A,3,13,08,,,,,,,,,,,2.6,1.4,2.2*28
$GPGSV,3,1,10,01,64,048,35,07,60,344,34,08,35,132,36,13,08,231,23*76
$GPGSV,3,2,10,14,39,228,40,17,28,287,39,19,05,297,,21,61,101,29*7F
$GPGSV,3,3,10,28,,,28,30,60,261,41*4D
$BDGSV,1,1,03,05,,,21,08,30,128,22,13,36,114,38*65
$GNRMC,125948.000,A,3402.8300,S,01826.8527,E,0.78,0.00,100922,,,A*62
Target
Lat#-3404722#Long#1844757#Bearing#153.43
Current:
Lat#-3404716#Long#1844754#Bearing#0.00
Errors:
Dist#7#Bearing_Error#153.43
Motors:
Throttle%#0#Steering%#100#Left_DC#75.00#Right_DC#75.00


$GNVTG,0.00,T,,M,0.78,N,1.45,K,A*2C
$GNZDA,125948.000,10,09,2022,00,00*41
$GPTXT,01,01,01,ANTENNA OK*35
$GNGGA,125949.000,34$GNGGA,125951.000,3402.8309,S,01826.8517,E,1,10,1.4,61.3,M,0.0,M,,*55
$GNGLL,3402.8309,S,01826.8517,E,125951.000,A,A*50
$GPGSA,A,3,08,21,07,01,13,17,30,14,,,,,2.6,1.4,2.2*3C
$BDGSA,A,3,13,08,,,,,,,,,,,2.6,1.4,2.2*28
$GPGSV,3,1,10,01,64,048,42,07,60,344,44,08,35,132,37,13,08,231,24*77
$GPGSV,3,2,10,14,39,228,34,17,28,287,39,19,05,297,,21,61,101,36*72
$GPGSV,3,3,10,28,,,24,30,60,261,43*43
$BDGSV,1,1,03,05,,,21,08,30,128,31,13,36,114,33*6C
$GNRMC,125951.000,A,3402.8309,S,01826.8517,E,0.69,0.00,100922,,,A*60
Target
Lat#-3404722#Long#1844757#Bearing#128.66
Current:
Lat#-3404718#Long#1844752#Bearing#0.00
Errors:
Dist#7#Bearing_Error#128.66
Motors:
Throttle%#0#Steering%#100#Left_DC#75.00#Right_DC#75.00


$GNVTG,0.00,T,,M,0.69,N,1.28,K,A*27
$GNZDA,125951.000,10,09,2022,00,00*49
$GPTXT,01,01,01,ANTENNA OK*35
$GNGGA,125952.000,34$GNGGA,125954.000,3402.8315,S,01826.8512,E,1,10,1.4,61.2,M,0.0,M,,*59
$GNGLL,3402.8315,S,01826.8512,E,125954.000,A,A*5D
$GPGSA,A,3,08,21,07,01,13,17,30,14,,,,,2.6,1.4,2.2*3C
$BDGSA,A,3,13,08,,,,,,,,,,,2.6,1.4,2.2*28
$GPGSV,3,1,10,01,64,048,40,07,60,344,45,08,35,132,38,13,08,231,22*7D
$GPGSV,3,2,10,14,39,228,31,17,28,287,36,19,05,297,,21,61,102,32*7F
$GPGSV,3,3,10,28,,,25,30,60,261,39*4F
$BDGSV,1,1,03,05,,,33,08,30,128,27,13,36,114,27*6D
$GNRMC,125954.000,A,3402.8315,S,01826.8512,E,0.00,0.00,100922,,,A*62
Target
Lat#-3404722#Long#1844757#Bearing#120.96
Current:
Lat#-3404719#Long#1844752#Bearing#0.00
Errors:
Dist#6#Bearing_Error#120.96
Motors:
Throttle%#0#Steering%#100#Left_DC#75.00#Right_DC#75.00


$GNVTG,0.00,T,,M,0.00,N,0.00,K,A*23
$GNZDA,125954.000,10,09,2022,00,00*4C
$GPTXT,01,01,01,ANTENNA OK*35
$GNGGA,125955.000,34$GNGGA,125957.000,3402.8318,S,01826.8504,E,1,10,1.4,61.2,M,0.0,M,,*50
$GNGLL,3402.8318,S,01826.8504,E,125957.000,A,A*54
$GPGSA,A,3,08,21,07,01,13,17,30,14,,,,,2.6,1.4,2.2*3C
$BDGSA,A,3,13,08,,,,,,,,,,,2.6,1.4,2.2*28
$GPGSV,3,1,10,01,64,048,42,07,60,344,42,08,35,132,29,13,08,231,22*78
$GPGSV,3,2,10,14,39,228,30,17,28,287,35,19,05,297,,21,61,102,36*79
$GPGSV,3,3,10,28,,,26,30,60,261,39*4C
$BDGSV,1,1,03,05,,,33,08,30,128,28,13,36,114,27*62
$GNRMC,125957.000,A,3402.8318,S,01826.8504,E,0.49,0.00,100922,,,A*66
Target
Lat#-3404722#Long#1844757#Bearing#113.20
Current:
Lat#-3404719#Long#1844750#Bearing#0.00
Errors:
Dist#8#Bearing_Error#113.20
Motors:
Throttle%#0#Steering%#100#Left_DC#75.00#Right_DC#75.00


$GNVTG,0.00,T,,M,0.49,N,0.92,K,A*25
$GNZDA,125957.000,10,09,2022,00,00*4F
$GPTXT,01,01,01,ANTENNA OK*35
$GNGGA,125958.000,34$GNGGA,130000.000,3402.8318,S,01826.8497,E,1,10,1.4,61.2,M,0.0,M,,*54
$GNGLL,3402.8318,S,01826.8497,E,130000.000,A,A*50
$GPGSA,A,3,08,21,07,01,13,17,30,14,,,,,2.6,1.4,2.2*3C
$BDGSA,A,3,13,08,,,,,,,,,,,2.6,1.4,2.2*28
$GPGSV,3,1,10,01,64,049,43,07,60,344,44,08,35,132,28,13,08,231,22*7F
$GPGSV,3,2,10,14,39,228,38,17,28,287,41,19,05,297,,21,61,102,40*73
$GPGSV,3,3,10,28,,,30,30,60,261,42*47
$BDGSV,1,1,03,05,,,33,08,30,128,27,13,36,114,31*6A
$GNRMC,130000.000,A,3402.8318,S,01826.8497,E,0.00,0.00,100922,,,A*6F
Target
Lat#-3404722#Long#1844757#Bearing#110.56
Current:
Lat#-3404719#Long#1844749#Bearing#0.00
Errors:
Dist#9#Bearing_Error#110.56
Motors:
Throttle%#0#Steering%#100#Left_DC#75.00#Right_DC#75.00


$GNVTG,0.00,T,,M,0.00,N,0.00,K,A*23
$GNZDA,130000.000,10,09,2022,00,00*40
$GPTXT,01,01,01,ANTENNA OK*35
$GNGGA,130001.000,34$GNGGA,130003.000,3402.8318,S,01826.8490,E,1,10,1.4,61.1,M,0.0,M,,*53
$GNGLL,3402.8318,S,01826.8490,E,130003.000,A,A*54
$GPGSA,A,3,08,21,07,01,13,17,30,14,,,,,2.6,1.4,2.2*3C
$BDGSA,A,3,13,08,,,,,,,,,,,2.6,1.4,2.2*28
$GPGSV,3,1,10,01,64,049,44,07,60,344,42,08,35,132,37,13,08,232,23*72
$GPGSV,3,2,10,14,39,228,40,17,28,287,40,19,05,297,,21,61,102,39*73
$GPGSV,3,3,10,28,,,29,30,60,261,41*4C
$BDGSV,1,1,03,05,,,33,08,30,128,32,13,36,115,32*6C
$GNRMC,130003.000,A,3402.8318,S,01826.8490,E,0.00,0.00,100922,,,A*6B
Target
Lat#-3404722#Long#1844757#Bearing#108.43
Current:
Lat#-3404719#Long#1844748#Bearing#0.00
Errors:
Dist#10#Bearing_Error#108.43
Motors:
Throttle%#100#Steering%#100#Left_DC#100.00#Right_DC#50.00


$GNVTG,0.00,T,,M,0.00,N,0.00,K,A*23
$GNZDA,130003.000,10,09,2022,00,00*43
$GPTXT,01,01,01,ANTENNA OK*35
$GNGGA,130004.000,34$GNGGA,130006.000,3402.8318,S,01826.8487,E,1,10,1.4,60.9,M,0.0,M,,*59
$GNGLL,3402.8318,S,01826.8487,E,130006.000,A,A*57
$GPGSA,A,3,08,21,07,01,13,17,30,14,,,,,2.6,1.4,2.2*3C
$BDGSA,A,3,13,08,,,,,,,,,,,2.6,1.4,2.2*28
$GPGSV,3,1,10,01,64,049,44,07,60,344,40,08,35,132,38,13,08,232,26*7A
$GPGSV,3,2,10,14,39,228,39,17,28,287,29,19,05,297,,21,61,102,38*73
$GPGSV,3,3,10,28,,,33,30,60,261,39*48
$BDGSV,1,1,03,05,,,33,08,30,128,39,13,36,115,39*6C
$GNRMC,130006.000,A,3402.8318,S,01826.8487,E,0.00,0.00,100922,,,A*68
Target
Lat#-3404722#Long#1844757#Bearing#106.70
Current:
Lat#-3404719#Long#1844747#Bearing#0.00
Errors:
Dist#11#Bearing_Error#106.70
Motors:
Throttle%#100#Steering%#100#Left_DC#100.00#Right_DC#50.00


$GNVTG,0.00,T,,M,0.00,N,0.00,K,A*23
$GNZDA,130006.000,10,09,2022,00,00*46
$GPTXT,01,01,01,ANTENNA OK*35
$GNGGA,130007.000,34$GNGGA,130009.000,3402.8316,S,01826.8485,E,1,10,1.4,61.0,M,0.0,M,,*52
$GNGLL,3402.8316,S,01826.8485,E,130009.000,A,A*54
$GPGSA,A,3,08,21,07,01,13,17,30,14,,,,,2.6,1.4,2.2*3C
$BDGSA,A,3,13,08,,,,,,,,,,,2.6,1.4,2.2*28
$GPGSV,3,1,10,01,64,049,44,07,60,344,40,08,35,132,33,13,08,232,26*71
$GPGSV,3,2,10,14,39,228,35,17,28,287,35,19,05,297,,21,61,102,44*79
$GPGSV,3,3,10,28,,,31,30,60,261,32*41
$BDGSV,1,1,03,05,,,33,08,30,128,33,13,36,115,37*68
$GNRMC,130009.000,A,3402.8316,S,01826.8485,E,0.00,0.00,100922,,,A*6B
Target
Lat#-3404722#Long#1844757#Bearing#106.70
Current:
Lat#-3404719#Long#1844747#Bearing#0.00
Errors:
Dist#11#Bearing_Error#106.70
Motors:
Throttle%#100#Steering%#100#Left_DC#100.00#Right_DC#50.00


$GNVTG,0.00,T,,M,0.00,N,0.00,K,A*23
$GNZDA,130009.000,10,09,2022,00,00*49
$GPTXT,01,01,01,ANTENNA OK*35
$GNGGA,130010.000,34$GNGGA,130012.000,3402.8315,S,01826.8483,E,1,10,1.4,60.9,M,0.0,M,,*55
$GNGLL,3402.8315,S,01826.8483,E,130012.000,A,A*5B
$GPGSA,A,3,08,21,07,01,13,17,30,14,,,,,2.6,1.4,2.2*3C
$BDGSA,A,3,13,08,,,,,,,,,,,2.6,1.4,2.2*28
$GPGSV,3,1,10,01,64,049,43,07,60,344,41,08,35,132,39,13,08,232,26*7D
$GPGSV,3,2,10,14,39,228,36,17,28,287,37,19,05,297,,21,61,102,45*79
$GPGSV,3,3,10,28,,,30,30,60,261,35*47
$BDGSV,1,1,03,05,,,33,08,30,128,32,13,36,115,39*67
$GNRMC,130012.000,A,3402.8315,S,01826.8483,E,0.00,0.00,100922,,,A*64
Target
Lat#-3404722#Long#1844757#Bearing#106.70
Current:
Lat#-3404719#Long#1844747#Bearing#0.00
Errors:
Dist#11#Bearing_Error#106.70
Motors:
Throttle%#100#Steering%#100#Left_DC#100.00#Right_DC#50.00


$GNVTG,0.00,T,,M,0.00,N,0.00,K,A*23
$GNZDA,130012.000,10,09,2022,00,00*43
$GPTXT,01,01,01,ANTENNA OK*35
$GNGGA,130013.000,34$GNGGA,130015.000,3402.8301,S,01826.8482,E,1,10,1.4,60.1,M,0.0,M,,*5E
$GNGLL,3402.8301,S,01826.8482,E,130015.000,A,A*58
$GPGSA,A,3,08,21,07,01,13,17,30,14,,,,,2.6,1.4,2.2*3C
$BDGSA,A,3,13,08,,,,,,,,,,,2.6,1.4,2.2*28
$GPGSV,3,1,10,01,64,049,43,07,60,344,42,08,35,132,43,13,08,232,26*73
$GPGSV,3,2,10,14,39,228,35,17,28,287,44,19,05,297,,21,61,102,45*7E
$GPGSV,3,3,10,28,,,28,30,60,261,29*43
$BDGSV,1,1,03,05,,,33,08,30,128,30,13,36,115,36*6A
$GNRMC,130015.000,A,3402.8301,S,01826.8482,E,0.54,0.00,100922,,,A*66
Target
Lat#-3404722#Long#1844757#Bearing#120.96
Current:
Lat#-3404716#Long#1844747#Bearing#0.00
Errors:
Dist#12#Bearing_Error#120.96
Motors:
Throttle%#100#Steering%#100#Left_DC#100.00#Right_DC#50.00


$GNVTG,0.00,T,,M,0.54,N,1.00,K,A*23
$GNZDA,130015.000,10,09,2022,00,00*44
$GPTXT,01,01,01,ANTENNA OK*35
$GNGGA,130016.000,34$GNGGA,130018.000,3402.8300,S,01826.8480,E,1,10,1.4,59.9,M,0.0,M,,*52
$GNGLL,3402.8300,S,01826.8480,E,130018.000,A,A*56
$GPGSA,A,3,08,21,07,01,13,17,30,14,,,,,2.6,1.4,2.2*3C
$BDGSA,A,3,13,08,,,,,,,,,,,2.6,1.4,2.2*28
$GPGSV,3,1,10,01,64,049,46,07,60,344,39,08,35,132,30,13,08,232,26*7E
$GPGSV,3,2,10,14,39,227,36,17,28,287,44,19,05,297,,21,61,102,44*73
$GPGSV,3,3,10,28,,,26,30,60,262,33*45
$BDGSV,1,1,03,05,,,32,08,30,128,28,13,36,115,36*62
$GNRMC,130018.000,A,3402.8300,S,01826.8480,E,0.00,0.00,100922,,,A*69
Target
Lat#-3404722#Long#1844757#Bearing#118.61
Current:
Lat#-3404716#Long#1844746#Bearing#0.00
Errors:
Dist#13#Bearing_Error#118.61
Motors:
Throttle%#100#Steering%#100#Left_DC#100.00#Right_DC#50.00


$GNVTG,0.00,T,,M,0.00,N,0.00,K,A*23
$GNZDA,130018.000,10,09,2022,00,00*49
$GPTXT,01,01,01,ANTENNA OK*35
$GNGGA,130019.000,34$GNGGA,130021.000,3402.8300,S,01826.8480,E,1,10,1.4,59.8,M,0.0,M,,*59
$GNGLL,3402.8300,S,01826.8480,E,130021.000,A,A*5C
$GPGSA,A,3,08,21,07,01,13,17,30,14,,,,,2.6,1.4,2.2*3C
$BDGSA,A,3,13,08,,,,,,,,,,,2.6,1.4,2.2*28
$GPGSV,3,1,10,01,64,049,45,07,60,344,23,08,35,132,38,13,08,232,24*7C
$GPGSV,3,2,10,14,39,227,32,17,28,287,47,19,05,297,,21,61,102,47*77
$GPGSV,3,3,10,28,,,24,30,60,262,31*45
$BDGSV,1,1,03,05,,,28,08,30,128,29,13,36,115,42*6B
$GNRMC,130021.000,A,3402.8300,S,01826.8480,E,0.00,0.00,100922,,,A*63
Target
Lat#-3404722#Long#1844757#Bearing#118.61
Current:
Lat#-3404716#Long#1844746#Bearing#0.00
Errors:
Dist#13#Bearing_Error#118.61
Motors:
Throttle%#100#Steering%#100#Left_DC#100.00#Right_DC#50.00


$GNVTG,0.00,T,,M,0.00,N,0.00,K,A*23
$GNZDA,130021.000,10,09,2022,00,00*43
$GPTXT,01,01,01,ANTENNA OK*35
$GNGGA,130022.000,34$GNGGA,130024.000,3402.8299,S,01826.8479,E,1,10,1.4,59.8,M,0.0,M,,*5B
$GNGLL,3402.8299,S,01826.8479,E,130024.000,A,A*5E
$GPGSA,A,3,08,21,07,01,13,17,30,14,,,,,2.6,1.4,2.2*3C
$BDGSA,A,3,13,08,,,,,,,,,,,2.6,1.4,2.2*28
$GPGSV,3,1,10,01,64,049,43,07,60,344,30,08,35,132,41,13,08,232,26*74
$GPGSV,3,2,10,14,39,227,23,17,28,287,46,19,05,297,,21,61,102,47*76
$GPGSV,3,3,10,28,,,31,30,60,262,24*45
$BDGSV,1,1,03,05,,,03,08,30,128,34,13,36,115,41*6D
$GNRMC,130024.000,A,3402.8299,S,01826.8479,E,0.00,0.00,100922,,,A*61
Target
Lat#-3404722#Long#1844757#Bearing#118.61
Current:
Lat#-3404716#Long#1844746#Bearing#0.00
Errors:
Dist#13#Bearing_Error#118.61
Motors:
Throttle%#100#Steering%#100#Left_DC#100.00#Right_DC#50.00


$GNVTG,0.00,T,,M,0.00,N,0.00,K,A*23
$GNZDA,130024.000,10,09,2022,00,00*46
$GPTXT,01,01,01,ANTENNA OK*35
$GNGGA,130025.000,34$GNGGA,130027.000,3402.8298,S,01826.8478,E,1,10,1.4,59.7,M,0.0,M,,*57
$GNGLL,3402.8298,S,01826.8478,E,130027.000,A,A*5D
$GPGSA,A,3,08,21,07,01,13,17,30,14,,,,,2.6,1.4,2.2*3C
$BDGSA,A,3,13,08,,,,,,,,,,,2.6,1.4,2.2*28
$GPGSV,3,1,10,01,64,049,43,07,60,344,32,08,35,132,34,13,08,232,26*74
$GPGSV,3,2,10,14,39,227,23,17,28,287,44,19,05,297,,21,61,102,46*75
$GPGSV,3,3,10,28,,,30,30,60,262,33*42
$BDGSV,1,1,03,05,,,03,08,30,128,31,13,36,115,40*69
$GNRMC,130027.000,A,3402.8298,S,01826.8478,E,0.00,0.00,100922,,,A*62
Target
Lat#-3404722#Long#1844757#Bearing#118.61
Current:
Lat#-3404716#Long#1844746#Bearing#0.00
Errors:
Dist#13#Bearing_Error#118.61
Motors:
Throttle%#100#Steering%#100#Left_DC#100.00#Right_DC#50.00


$GNVTG,0.00,T,,M,0.00,N,0.00,K,A*23
$GNZDA,130027.000,10,09,2022,00,00*45
$GPTXT,01,01,01,ANTENNA OK*35
$GNGGA,130028.000,34$GNGGA,130030.000,3402.8297,S,01826.8478,E,1,10,1.4,59.7,M,0.0,M,,*5E
$GNGLL,3402.8297,S,01826.8478,E,130030.000,A,A*54
$GPGSA,A,3,08,21,07,01,13,17,30,14,,,,,2.6,1.4,2.2*3C
$BDGSA,A,3,13,08,,,,,,,,,,,2.6,1.4,2.2*28
$GPGSV,3,1,10,01,64,049,42,07,60,344,32,08,35,132,33,13,08,232,27*73
$GPGSV,3,2,10,14,39,227,24,17,28,287,43,19,05,297,,21,61,102,46*75
$GPGSV,3,3,10,28,,,27,30,60,262,33*44
$BDGSV,1,1,03,05,,,11,08,30,128,31,13,36,115,39*64
$GNRMC,130030.000,A,3402.8297,S,01826.8478,E,0.00,0.00,100922,,,A*6B
Target
Lat#-3404722#Long#1844757#Bearing#118.61
Current:
Lat#-3404716#Long#1844746#Bearing#0.00
Errors:
Dist#13#Bearing_Error#118.61
Motors:
Throttle%#100#Steering%#100#Left_DC#100.00#Right_DC#50.00


$GNVTG,0.00,T,,M,0.00,N,0.00,K,A*23
$GNZDA,130030.000,10,09,2022,00,00*43
$GPTXT,01,01,01,ANTENNA OK*35
$GNGGA,130031.000,34$GNGGA,130033.000,3402.8297,S,01826.8478,E,1,10,1.4,59.7,M,0.0,M,,*5D
$GNGLL,3402.8297,S,01826.8478,E,130033.000,A,A*57
$GPGSA,A,3,08,21,07,01,13,17,30,14,,,,,2.6,1.4,2.2*3C
$BDGSA,A,3,13,08,,,,,,,,,,,2.6,1.4,2.2*28
$GPGSV,3,1,10,01,64,049,40,07,60,344,33,08,35,132,36,13,08,232,25*77
$GPGSV,3,2,10,14,39,227,40,17,28,287,36,19,05,297,,21,61,102,42*71
$GPGSV,3,3,10,28,,,28,30,60,262,43*4C
$BDGSV,1,1,03,05,,,20,08,30,128,31,13,36,115,30*6F
$GNRMC,130033.000,A,3402.8297,S,01826.8478,E,0.00,0.00,100922,,,A*68
Target
Lat#-3404722#Long#1844757#Bearing#118.61
Current:
Lat#-3404716#Long#1844746#Bearing#0.00
Errors:
Dist#13#Bearing_Error#118.61
Motors:
Throttle%#100#Steering%#100#Left_DC#100.00#Right_DC#50.00


$GNVTG,0.00,T,,M,0.00,N,0.00,K,A*23
$GNZDA,130033.000,10,09,2022,00,00*40
$GPTXT,01,01,01,ANTENNA OK*35
$GNGGA,130034.000,34$GNGGA,130036.000,3402.8296,S,01826.8478,E,1,10,1.4,59.6,M,0.0,M,,*58
$GNGLL,3402.8296,S,01826.8478,E,130036.000,A,A*53
$GPGSA,A,3,08,21,07,01,13,17,30,14,,,,,2.6,1.4,2.2*3C
$BDGSA,A,3,13,08,,,,,,,,,,,2.6,1.4,2.2*28
$GPGSV,3,1,10,01,64,049,33,07,59,344,40,08,35,132,32,13,08,232,25*79
$GPGSV,3,2,10,14,39,227,35,17,28,287,40,19,05,297,,21,61,102,38*7F
$GPGSV,3,3,10,28,,,27,30,60,262,44*44
$BDGSV,1,1,03,05,,,31,08,30,128,29,13,36,115,31*67
$GNRMC,130036.000,A,3402.8296,S,01826.8478,E,0.00,0.00,100922,,,A*6C
Target
Lat#-3404722#Long#1844757#Bearing#118.61
Current:
Lat#-3404716#Long#1844746#Bearing#0.00
Errors:
Dist#13#Bearing_Error#118.61
Motors:
Throttle%#100#Steering%#100#Left_DC#100.00#Right_DC#50.00


$GNVTG,0.00,T,,M,0.00,N,0.00,K,A*23
$GNZDA,130036.000,10,09,2022,00,00*45
$GPTXT,01,01,01,ANTENNA OK*35
$GNGGA,130037.000,34$GNGGA,130039.000,3402.8296,S,01826.8477,E,1,10,1.4,59.4,M,0.0,M,,*5A
$GNGLL,3402.8296,S,01826.8477,E,130039.000,A,A*53
$GPGSA,A,3,08,21,07,01,13,17,30,14,,,,,2.6,1.4,2.2*3C
$BDGSA,A,3,13,08,,,,,,,,,,,2.6,1.4,2.2*28
$GPGSV,3,1,10,01,64,049,30,07,59,344,36,08,35,132,32,13,08,232,25*7B
$GPGSV,3,2,10,14,39,227,33,17,28,287,38,19,05,297,,21,61,102,39*77
$GPGSV,3,3,10,28,,,27,30,60,262,44*44
$BDGSV,1,1,03,05,,,31,08,30,128,28,13,36,115,35*62
$GNRMC,130039.000,A,3402.8296,S,01826.8477,E,0.00,0.00,100922,,,A*6C
Target
Lat#-3404722#Long#1844757#Bearing#118.61
Current:
Lat#-3404716#Long#1844746#Bearing#0.00
Errors:
Dist#13#Bearing_Error#118.61
Motors:
Throttle%#100#Steering%#100#Left_DC#100.00#Right_DC#50.00


$GNVTG,0.00,T,,M,0.00,N,0.00,K,A*23
$GNZDA,130039.000,10,09,2022,00,00*4A
$GPTXT,01,01,01,ANTENNA OK*35
$GNGGA,130040.000,34$GNGGA,130042.000,3402.8301,S,01826.8475,E,1,10,1.4,60.6,M,0.0,M,,*53
$GNGLL,3402.8301,S,01826.8475,E,130042.000,A,A*52
$GPGSA,A,3,08,21,07,01,13,17,30,14,,,,,2.6,1.4,2.2*3C
$BDGSA,A,3,13,08,,,,,,,,,,,2.6,1.4,2.2*28
$GPGSV,3,1,10,01,64,049,31,07,59,344,40,08,35,132,31,13,08,232,24*79
$GPGSV,3,2,10,14,40,227,35,17,28,287,34,19,05,297,,21,61,102,40*7D
$GPGSV,3,3,10,28,,,28,30,60,262,45*4A
$BDGSV,1,1,03,05,,,31,08,30,128,28,13,36,115,31*66
$GNRMC,130042.000,A,3402.8301,S,01826.8475,E,0.00,0.00,100922,,,A*6D
Target
Lat#-3404722#Long#1844757#Bearing#116.57
Current:
Lat#-3404716#Long#1844745#Bearing#0.00
Errors:
Dist#14#Bearing_Error#116.57
Motors:
Throttle%#100#Steering%#100#Left_DC#100.00#Right_DC#50.00


$GNVTG,0.00,T,,M,0.00,N,0.00,K,A*23
$GNZDA,130042.000,10,09,2022,00,00*46
$GPTXT,01,01,01,ANTENNA OK*35
$GNGGA,130043.000,34$GNGGA,130045.000,3402.8306,S,01826.8475,E,1,10,1.4,60.6,M,0.0,M,,*53
$GNGLL,3402.8306,S,01826.8475,E,130045.000,A,A*52
$GPGSA,A,3,08,21,07,01,13,17,30,14,,,,,2.6,1.4,2.2*3C
$BDGSA,A,3,13,08,,,,,,,,,,,2.6,1.4,2.2*28
$GPGSV,3,1,10,01,64,049,34,07,59,344,38,08,35,132,29,13,08,232,24*7A
$GPGSV,3,2,10,14,40,227,41,17,28,287,39,19,05,297,,21,61,102,41*72
$GPGSV,3,3,10,28,,,30,30,60,262,38*49
$BDGSV,1,1,03,05,,,31,08,30,128,26,13,36,115,30*69
$GNRMC,130045.000,A,3402.8306,S,01826.8475,E,0.30,0.00,100922,,,A*6E
Target
Lat#-3404722#Long#1844757#Bearing#112.62
Current:
Lat#-3404717#Long#1844745#Bearing#0.00
Errors:
Dist#14#Bearing_Error#112.62
Motors:
Throttle%#100#Steering%#100#Left_DC#100.00#Right_DC#50.00


$GNVTG,0.00,T,,M,0.30,N,0.55,K,A*20
$GNZDA,130045.000,10,09,2022,00,00*41
$GPTXT,01,01,01,ANTENNA OK*35
$GNGGA,130046.000,34$GNGGA,130048.000,3402.8307,S,01826.8475,E,1,10,1.4,60.4,M,0.0,M,,*5D
$GNGLL,3402.8307,S,01826.8475,E,130048.000,A,A*5E
$GPGSA,A,3,08,21,07,01,13,17,30,14,,,,,2.6,1.4,2.2*3C
$BDGSA,A,3,13,08,,,,,,,,,,,2.6,1.4,2.2*28
$GPGSV,3,1,10,01,64,049,42,07,59,344,35,08,35,132,31,13,08,232,24*7F
$GPGSV,3,2,10,14,40,227,39,17,28,287,37,19,05,297,,21,61,102,41*73
$GPGSV,3,3,10,28,,,28,30,60,262,41*4E
$BDGSV,1,1,03,05,,,31,08,30,129,27,13,36,115,29*61
$GNRMC,130048.000,A,3402.8307,S,01826.8475,E,0.00,0.00,100922,,,A*61
Target
Lat#-3404722#Long#1844757#Bearing#112.62
Current:
Lat#-3404717#Long#1844745#Bearing#0.00
Errors:
Dist#14#Bearing_Error#112.62
Motors:
Throttle%#100#Steering%#100#Left_DC#100.00#Right_DC#50.00


$GNVTG,0.00,T,,M,0.00,N,0.00,K,A*23
$GNZDA,130048.000,10,09,2022,00,00*4C
$GPTXT,01,01,01,ANTENNA OK*35
$GNGGA,130049.000,34$GNGGA,130051.000,3402.8308,S,01826.8479,E,1,10,1.4,60.5,M,0.0,M,,*57
$GNGLL,3402.8308,S,01826.8479,E,130051.000,A,A*55
$GPGSA,A,3,08,21,07,01,13,17,30,14,,,,,2.6,1.4,2.2*3C
$BDGSA,A,3,13,08,,,,,,,,,,,2.6,1.4,2.2*28
$GPGSV,3,1,10,01,64,049,39,07,59,344,33,08,35,132,30,13,08,232,25*75
$GPGSV,3,2,10,14,40,227,33,17,28,287,38,19,05,297,,21,61,102,41*76
$GPGSV,3,3,10,28,,,27,30,60,262,41*41
$BDGSV,1,1,03,05,,,31,08,30,129,27,13,36,115,32*6B
$GNRMC,130051.000,A,3402.8308,S,01826.8479,E,0.30,0.00,100922,,,A*69
Target
Lat#-3404722#Long#1844757#Bearing#109.98
Current:
Lat#-3404718#Long#1844746#Bearing#0.00
Errors:
Dist#13#Bearing_Error#109.98
Motors:
Throttle%#100#Steering%#100#Left_DC#100.00#Right_DC#50.00


$GNVTG,0.00,T,,M,0.30,N,0.55,K,A*20
$GNZDA,130051.000,10,09,2022,00,00*44
$GPTXT,01,01,01,ANTENNA OK*35
$GNGGA,130052.000,34$GNGGA,130054.000,3402.8308,S,01826.8496,E,1,10,1.4,60.0,M,0.0,M,,*56
$GNGLL,3402.8308,S,01826.8496,E,130054.000,A,A*51
$GPGSA,A,3,08,21,07,01,13,17,30,14,,,,,2.6,1.4,2.2*3C
$BDGSA,A,3,13,08,,,,,,,,,,,2.6,1.4,2.2*28
$GPGSV,3,1,10,01,64,049,41,07,59,344,33,08,35,132,30,13,08,232,25*7A
$GPGSV,3,2,10,14,40,227,39,17,28,287,34,19,05,297,,21,61,102,44*75
$GPGSV,3,3,10,28,,,36,30,60,262,37*40
$BDGSV,1,1,03,05,,,31,08,30,129,26,13,36,115,34*6C
$GNRMC,130054.000,A,3402.8308,S,01826.8496,E,0.90,0.00,100922,,,A*67
Target
Lat#-3404722#Long#1844757#Bearing#116.57
Current:
Lat#-3404718#Long#1844749#Bearing#0.00
Errors:
Dist#9#Bearing_Error#116.57
Motors:
Throttle%#0#Steering%#100#Left_DC#75.00#Right_DC#75.00


$GNVTG,0.00,T,,M,0.90,N,1.66,K,A*2B
$GNZDA,130054.000,10,09,2022,00,00*41
$GPTXT,01,01,01,ANTENNA OK*35
$GNGGA,130055.000,34$GNGGA,130057.000,3402.8307,S,01826.8508,E,1,10,1.4,61.0,M,0.0,M,,*5D
$GNGLL,3402.8307,S,01826.8508,E,130057.000,A,A*5B
$GPGSA,A,3,08,21,07,01,13,17,30,14,,,,,2.6,1.4,2.2*3C
$BDGSA,A,3,13,08,,,,,,,,,,,2.6,1.4,2.2*28
$GPGSV,3,1,10,01,64,049,45,07,59,344,35,08,35,132,35,13,08,232,25*7D
$GPGSV,3,2,10,14,40,227,35,17,28,287,35,19,05,297,,21,61,103,45*78
$GPGSV,3,3,10,28,,,31,30,60,262,39*49
$BDGSV,1,1,03,05,,,31,08,30,129,30,13,36,115,29*67
$GNRMC,130057.000,A,3402.8307,S,01826.8508,E,1.04,0.00,100922,,,A*61
Target
Lat#-3404722#Long#1844757#Bearing#129.81
Current:
Lat#-3404717#Long#1844751#Bearing#0.00
Errors:
Dist#8#Bearing_Error#129.81
Motors:
Throttle%#0#Steering%#100#Left_DC#75.00#Right_DC#75.00


$GNVTG,0.00,T,,M,1.04,N,1.92,K,A*2C
$GNZDA,130057.000,10,09,2022,00,00*42
$GPTXT,01,01,01,ANTENNA OK*35
$GNGGA,130058.000,34$GNGGA,130100.000,3402.8309,S,01826.8520,E,1,10,1.4,61.1,M,0.0,M,,*5B
$GNGLL,3402.8309,S,01826.8520,E,130100.000,A,A*5C
$GPGSA,A,3,08,21,07,01,13,17,30,14,,,,,2.6,1.4,2.2*3C
$BDGSA,A,3,13,08,,,,,,,,,,,2.6,1.4,2.2*28
$GPGSV,3,1,10,01,64,049,40,07,59,344,36,08,35,132,29,13,08,232,24*77
$GPGSV,3,2,10,14,40,227,35,17,28,287,37,19,05,297,,21,61,103,46*79
$GPGSV,3,3,10,28,,,27,30,60,262,40*40
$BDGSV,1,1,03,05,,,30,08,30,129,26,13,36,115,30*69
$GNRMC,130100.000,A,3402.8309,S,01826.8520,E,1.13,0.00,100922,,,A*60
Target
Lat#-3404722#Long#1844757#Bearing#135.00
Current:
Lat#-3404718#Long#1844753#Bearing#0.00
Errors:
Dist#6#Bearing_Error#135.00
Motors:
Throttle%#0#Steering%#100#Left_DC#75.00#Right_DC#75.00


$GNVTG,0.00,T,,M,1.13,N,2.10,K,A*23
$GNZDA,130100.000,10,09,2022,00,00*41
$GPTXT,01,01,01,ANTENNA OK*35
$GNGGA,130101.000,34$GNGGA,130103.000,3402.8310,S,01826.8532,E,1,10,1.4,61.3,M,0.0,M,,*51
$GNGLL,3402.8310,S,01826.8532,E,130103.000,A,A*54
$GPGSA,A,3,08,21,07,01,13,17,30,14,,,,,2.6,1.4,2.2*3C
$BDGSA,A,3,13,08,,,,,,,,,,,2.6,1.4,2.2*28
$GPGSV,3,1,10,01,64,049,43,07,59,344,36,08,34,132,29,13,08,232,22*73
$GPGSV,3,2,10,14,40,227,39,17,28,287,37,19,05,297,,21,61,103,46*75
$GPGSV,3,3,10,28,,,28,30,60,262,39*41
$BDGSV,1,1,03,05,,,21,08,30,129,24,13,36,115,26*6C
$GNRMC,130103.000,A,3402.8310,S,01826.8532,E,0.88,0.00,100922,,,A*6B
Target
Lat#-3404722#Long#1844757#Bearing#153.43
Current:
Lat#-3404718#Long#1844755#Bearing#0.00
Errors:
Dist#4#Bearing_Error#153.43
Motors:
Throttle%#0#Steering%#100#Left_DC#75.00#Right_DC#75.00


$GNVTG,0.00,T,,M,0.88,N,1.63,K,A*27
$GNZDA,130103.000,10,09,2022,00,00*42
$GPTXT,01,01,01,ANTENNA OK*35
$GNGGA,130104.000,34$GNGGA,130106.000,3402.8313,S,01826.8533,E,1,10,1.4,61.2,M,0.0,M,,*57
$GNGLL,3402.8313,S,01826.8533,E,130106.000,A,A*53
$GPGSA,A,3,08,21,07,01,13,17,30,14,,,,,2.6,1.4,2.2*3C
$BDGSA,A,3,13,08,,,,,,,,,,,2.6,1.4,2.2*28
$GPGSV,3,1,10,01,64,050,40,07,59,344,37,08,34,132,27,13,08,232,25*70
$GPGSV,3,2,10,14,40,227,39,17,28,287,34,19,05,297,,21,61,103,44*74
$GPGSV,3,3,10,28,,,32,30,60,262,43*47
$BDGSV,1,1,03,05,,,21,08,30,129,24,13,36,115,26*6C
$GNRMC,130106.000,A,3402.8313,S,01826.8533,E,0.00,0.00,100922,,,A*6C
Target
Lat#-3404722#Long#1844757#Bearing#153.43
Current:
Lat#-3404718#Long#1844755#Bearing#0.00
Errors:
Dist#4#Bearing_Error#153.43
Motors:
Throttle%#0#Steering%#100#Left_DC#75.00#Right_DC#75.00


$GNVTG,0.00,T,,M,0.00,N,0.00,K,A*23
$GNZDA,130106.000,10,09,2022,00,00*47
$GPTXT,01,01,01,ANTENNA OK*35
$GNGGA,130107.000,34$GNGGA,130109.000,3402.8314,S,01826.8534,E,1,10,1.4,61.1,M,0.0,M,,*5B
$GNGLL,3402.8314,S,01826.8534,E,130109.000,A,A*5C
$GPGSA,A,3,08,21,07,01,13,17,30,14,,,,,2.6,1.4,2.2*3C
$BDGSA,A,3,13,08,,,,,,,,,,,2.6,1.4,2.2*28
$GPGSV,3,1,10,01,64,050,36,07,59,344,38,08,34,132,29,13,08,232,25*70
$GPGSV,3,2,10,14,40,227,41,17,28,287,35,19,05,297,,21,61,103,39*70
$GPGSV,3,3,10,28,,,30,30,60,262,41*47
$BDGSV,1,1,03,05,,,21,08,30,129,22,13,36,115,25*69
$GNRMC,130109.000,A,3402.8314,S,01826.8534,E,0.00,0.00,100922,,,A*63
Target
Lat#-3404722#Long#1844757#Bearing#146.31
Current:
Lat#-3404719#Long#1844755#Bearing#0.00
Errors:
Dist#4#Bearing_Error#146.31
Motors:
Throttle%#0#Steering%#100#Left_DC#75.00#Right_DC#75.00


$GNVTG,0.00,T,,M,0.00,N,0.00,K,A*23
$GNZDA,130109.000,10,09,2022,00,00*48
$GPTXT,01,01,01,ANTENNA OK*35
$GNGGA,130110.000,34$GNGGA,130112.000,3402.8315,S,01826.8536,E,1,10,1.4,61.1,M,0.0,M,,*52
$GNGLL,3402.8315,S,01826.8536,E,130112.000,A,A*55
$GPGSA,A,3,08,21,07,01,13,17,30,14,,,,,2.6,1.4,2.2*3C
$BDGSA,A,3,13,08,,,,,,,,,,,2.6,1.4,2.2*28
$GPGSV,3,1,10,01,64,050,32,07,59,344,34,08,34,132,29,13,08,232,25*78
$GPGSV,3,2,10,14,40,227,35,17,28,287,38,19,05,297,,21,61,103,35*72
$GPGSV,3,3,10,28,,,33,30,60,262,43*46
$BDGSV,1,1,03,05,,,21,08,30,129,18,13,36,115,25*60
$GNRMC,130112.000,A,3402.8315,S,01826.8536,E,0.00,0.00,100922,,,A*6A
Target
Lat#-3404722#Long#1844757#Bearing#161.57
Current:
Lat#-3404719#Long#1844756#Bearing#0.00
Errors:
Dist#3#Bearing_Error#161.57
Motors:
Throttle%#0#Steering%#100#Left_DC#75.00#Right_DC#75.00


$GNVTG,0.00,T,,M,0.00,N,0.00,K,A*23
$GNZDA,130112.000,10,09,2022,00,00*42
$GPTXT,01,01,01,ANTENNA OK*35
$GNGGA,130113.000,34$GNGGA,130115.000,3402.8316,S,01826.8537,E,1,10,1.4,61.1,M,0.0,M,,*57
$GNGLL,3402.8316,S,01826.8537,E,130115.000,A,A*50
$GPGSA,A,3,08,21,07,01,13,17,30,14,,,,,2.6,1.4,2.2*3C
$BDGSA,A,3,13,08,,,,,,,,,,,2.6,1.4,2.2*28
$GPGSV,3,1,10,01,64,050,33,07,59,344,35,08,34,132,11,13,08,232,25*73
$GPGSV,3,2,10,14,40,227,33,17,28,287,42,19,05,297,,21,61,103,32*7E
$GPGSV,3,3,10,28,,,34,30,60,262,44*46
$BDGSV,1,1,03,05,,,21,08,30,129,18,13,36,115,25*60
$GNRMC,130115.000,A,3402.8316,S,01826.8537,E,0.00,0.00,100922,,,A*6F
Target
Lat#-3404722#Long#1844757#Bearing#161.57
Current:
Lat#-3404719#Long#1844756#Bearing#0.00
Errors:
Dist#3#Bearing_Error#161.57
Motors:
Throttle%#0#Steering%#100#Left_DC#75.00#Right_DC#75.00


$GNVTG,0.00,T,,M,0.00,N,0.00,K,A*23
$GNZDA,130115.000,10,09,2022,00,00*45
$GPTXT,01,01,01,ANTENNA OK*35
$GNGGA,130116.000,34$GNGGA,130118.000,3402.8317,S,01826.8537,E,1,10,1.4,61.0,M,0.0,M,,*5A
$GNGLL,3402.8317,S,01826.8537,E,130118.000,A,A*5C
$GPGSA,A,3,08,21,07,01,13,17,30,14,,,,,2.6,1.4,2.2*3C
$BDGSA,A,3,13,08,,,,,,,,,,,2.6,1.4,2.2*28
$GPGSV,3,1,10,01,64,050,33,07,59,344,33,08,34,132,31,13,08,232,25*77
$GPGSV,3,2,10,14,40,227,34,17,28,287,37,19,05,297,,21,61,103,28*70
$GPGSV,3,3,10,28,,,33,30,60,262,42*47
$BDGSV,1,1,03,05,,,21,08,30,129,14,13,36,115,24*6D
$GNRMC,130118.000,A,3402.8317,S,01826.8537,E,0.00,0.00,100922,,,A*63
Target
Lat#-3404722#Long#1844757#Bearing#161.57
Current:
Lat#-3404719#Long#1844756#Bearing#0.00
Errors:
Dist#3#Bearing_Error#161.57
Motors:
Throttle%#0#Steering%#100#Left_DC#75.00#Right_DC#75.00


$GNVTG,0.00,T,,M,0.00,N,0.00,K,A*23
$GNZDA,130118.000,10,09,2022,00,00*48
$GPTXT,01,01,01,ANTENNA OK*35
$GNGGA,130119.000,34$GNGGA,130121.000,3402.8318,S,01826.8538,E,1,10,1.4,60.9,M,0.0,M,,*58
$GNGLL,3402.8318,S,01826.8538,E,130121.000,A,A*56
$GPGSA,A,3,08,21,07,01,13,17,30,14,,,,,2.6,1.4,2.2*3C
$BDGSA,A,3,13,08,,,,,,,,,,,2.6,1.4,2.2*28
$GPGSV,3,1,10,01,64,050,29,07,59,344,30,08,34,132,32,13,08,232,22*7B
$GPGSV,3,2,10,14,40,227,36,17,28,287,35,19,05,296,,21,61,103,20*79
$GPGSV,3,3,10,28,,,30,30,60,263,41*46
$BDGSV,1,1,03,05,,,19,08,30,129,14,13,36,115,14*65
$GNRMC,130121.000,A,3402.8318,S,01826.8538,E,0.00,0.00,100922,,,A*69
Target
Lat#-3404722#Long#1844757#Bearing#161.57
Current:
Lat#-3404719#Long#1844756#Bearing#0.00
Errors:
Dist#3#Bearing_Error#161.57
Motors:
Throttle%#0#Steering%#100#Left_DC#75.00#Right_DC#75.00


$GNVTG,0.00,T,,M,0.00,N,0.00,K,A*23
$GNZDA,130121.000,10,09,2022,00,00*42
$GPTXT,01,01,01,ANTENNA OK*35
$GNGGA,130122.000,34$GNGGA,130124.000,3402.8319,S,01826.8539,E,1,10,1.4,60.8,M,0.0,M,,*5C
$GNGLL,3402.8319,S,01826.8539,E,130124.000,A,A*53
$GPGSA,A,3,08,21,07,01,13,17,30,14,,,,,2.6,1.4,2.2*3C
$BDGSA,A,3,13,08,,,,,,,,,,,2.6,1.4,2.2*28
$GPGSV,3,1,10,01,64,050,29,07,59,344,41,08,34,132,30,13,08,232,22*7F
$GPGSV,3,2,10,14,40,227,34,17,28,286,40,19,05,296,,21,61,103,32*7B
$GPGSV,3,3,10,28,,,31,30,60,263,43*45
$BDGSV,1,1,03,05,,,19,08,30,129,18,13,36,115,20*6E
$GNRMC,130124.000,A,3402.8319,S,01826.8539,E,0.00,0.00,100922,,,A*6C
Target
Lat#-3404722#Long#1844757#Bearing#161.57
Current:
Lat#-3404719#Long#1844756#Bearing#0.00
Errors:
Dist#3#Bearing_Error#161.57
Motors:
Throttle%#0#Steering%#100#Left_DC#75.00#Right_DC#75.00


$GNVTG,0.00,T,,M,0.00,N,0.00,K,A*23
$GNZDA,130124.000,10,09,2022,00,00*47
$GPTXT,01,01,01,ANTENNA OK*35
$GNGGA,130125.000,34$GNGGA,130127.000,3402.8320,S,01826.8540,E,1,10,1.4,60.8,M,0.0,M,,*5B
$GNGLL,3402.8320,S,01826.8540,E,130127.000,A,A*54
$GPGSA,A,3,08,21,07,01,13,17,30,14,,,,,2.6,1.4,2.2*3C
$BDGSA,A,3,13,08,,,,,,,,,,,2.6,1.4,2.2*28
$GPGSV,3,1,10,01,64,050,31,07,59,344,42,08,34,132,29,13,08,232,19*75
$GPGSV,3,2,10,14,40,227,40,17,28,286,40,19,05,296,,21,61,103,28*73
$GPGSV,3,3,10,28,,,30,30,60,263,38*48
$BDGSV,1,1,03,05,,,19,08,30,129,18,13,36,115,23*6D
$GNRMC,130127.000,A,3402.8320,S,01826.8540,E,0.00,0.00,100922,,,A*6B
Target
Lat#-3404722#Long#1844757#Bearing#153.43
Current:
Lat#-3404720#Long#1844756#Bearing#0.00
Errors:
Dist#2#Bearing_Error#153.43
Motors:
Throttle%#0#Steering%#100#Left_DC#75.00#Right_DC#75.00


$GNVTG,0.00,T,,M,0.00,N,0.00,K,A*23
$GNZDA,130127.000,10,09,2022,00,00*44
$GPTXT,01,01,01,ANTENNA OK*35
$GNGGA,130128.000,34$GNGGA,130130.000,3402.8320,S,01826.8540,E,1,10,1.4,60.8,M,0.0,M,,*5D
$GNGLL,3402.8320,S,01826.8540,E,130130.000,A,A*52
$GPGSA,A,3,08,21,07,01,13,17,30,14,,,,,2.6,1.4,2.2*3C
$BDGSA,A,3,13,08,,,,,,,,,,,2.6,1.4,2.2*28
$GPGSV,3,1,10,01,64,050,27,07,59,344,41,08,34,132,29,13,08,232,19*71
$GPGSV,3,2,10,14,40,227,34,17,28,286,44,19,05,296,,21,61,103,28*74
$GPGSV,3,3,10,28,,,30,30,60,263,42*45
$BDGSV,1,1,03,05,,,15,08,30,129,20,13,36,115,23*6A
$GNRMC,130130.000,A,3402.8320,S,01826.8540,E,0.00,0.00,100922,,,A*6D
Target
Lat#-3404722#Long#1844757#Bearing#153.43
Current:
Lat#-3404720#Long#1844756#Bearing#0.00
Errors:
Dist#2#Bearing_Error#153.43
Motors:
Throttle%#0#Steering%#100#Left_DC#75.00#Right_DC#75.00


$GNVTG,0.00,T,,M,0.00,N,0.00,K,A*23
$GNZDA,130130.000,10,09,2022,00,00*42
$GPTXT,01,01,01,ANTENNA OK*35
$GNGGA,130131.000,34$GNGGA,130133.000,3402.8319,S,01826.8540,E,1,10,1.4,60.8,M,0.0,M,,*54
$GNGLL,3402.8319,S,01826.8540,E,130133.000,A,A*5B
$GPGSA,A,3,08,21,07,01,13,17,30,14,,,,,2.6,1.4,2.2*3C
$BDGSA,A,3,13,08,,,,,,,,,,,2.6,1.4,2.2*28
$GPGSV,3,1,10,01,64,050,27,07,59,344,41,08,34,132,29,13,08,232,19*71
$GPGSV,3,2,10,14,40,227,39,17,28,286,44,19,05,296,,21,61,103,27*76
$GPGSV,3,3,10,28,,,33,30,60,263,41*45
$BDGSV,1,1,03,05,,,15,08,30,129,20,13,36,115,23*6A
$GNRMC,130133.000,A,3402.8319,S,01826.8540,E,0.00,0.00,100922,,,A*64
Target
Lat#-3404722#Long#1844757#Bearing#161.57
Current:
Lat#-3404719#Long#1844756#Bearing#0.00
Errors:
Dist#3#Bearing_Error#161.57
Motors:
Throttle%#0#Steering%#100#Left_DC#75.00#Right_DC#75.00


$GNVTG,0.00,T,,M,0.00,N,0.00,K,A*23
$GNZDA,130133.000,10,09,2022,00,00*41
$GPTXT,01,01,01,ANTENNA OK*35
$GNGGA,130134.000,34$GNGGA,130136.000,3402.8319,S,01826.8541,E,1,10,1.4,60.9,M,0.0,M,,*51
$GNGLL,3402.8319,S,01826.8541,E,130136.000,A,A*5F
$GPGSA,A,3,08,21,07,01,13,17,30,14,,,,,2.6,1.4,2.2*3C
$BDGSA,A,3,13,08,,,,,,,,,,,2.6,1.4,2.2*28
$GPGSV,3,1,10,01,64,050,32,07,59,344,41,08,34,132,29,13,08,232,19*75
$GPGSV,3,2,10,14,40,227,39,17,28,286,41,19,05,296,,21,61,103,28*7C
$GPGSV,3,3,10,28,,,29,30,60,263,37*4F
$BDGSV,1,1,03,05,,,15,08,30,129,20,13,36,115,23*6A
$GNRMC,130136.000,A,3402.8319,S,01826.8541,E,0.00,0.00,100922,,,A*60
Target
Lat#-3404722#Long#1844757#Bearing#161.57
Current:
Lat#-3404719#Long#1844756#Bearing#0.00
Errors:
Dist#3#Bearing_Error#161.57
Motors:
Throttle%#0#Steering%#100#Left_DC#75.00#Right_DC#75.00


$GNVTG,0.00,T,,M,0.00,N,0.00,K,A*23
$GNZDA,130136.000,10,09,2022,00,00*44
$GPTXT,01,01,01,ANTENNA OK*35
$GNGGA,130137.000,34$GNGGA,130139.000,3402.8319,S,01826.8541,E,1,10,1.4,61.0,M,0.0,M,,*56
$GNGLL,3402.8319,S,01826.8541,E,130139.000,A,A*50
$GPGSA,A,3,08,21,07,01,13,17,30,14,,,,,2.6,1.4,2.2*3C
$BDGSA,A,3,13,08,,,,,,,,,,,2.6,1.4,2.2*28
$GPGSV,3,1,10,01,64,050,33,07,59,344,40,08,34,132,29,13,08,232,23*7C
$GPGSV,3,2,10,14,40,227,43,17,28,286,41,19,05,296,,21,61,103,26*7F
$GPGSV,3,3,10,28,,,28,30,60,263,39*40
$BDGSV,1,1,03,05,,,10,08,30,129,20,13,36,115,23*6F
$GNRMC,130139.000,A,3402.8319,S,01826.8541,E,0.00,0.00,100922,,,A*6F
Target
Lat#-3404722#Long#1844757#Bearing#161.57
Current:
Lat#-3404719#Long#1844756#Bearing#0.00
Errors:
Dist#3#Bearing_Error#161.57
Motors:
Throttle%#0#Steering%#100#Left_DC#75.00#Right_DC#75.00


$GNVTG,0.00,T,,M,0.00,N,0.00,K,A*23
$GNZDA,130139.000,10,09,2022,00,00*4B
$GPTXT,01,01,01,ANTENNA OK*35
$GNGGA,130140.000,34$GNGGA,130142.000,3402.8319,S,01826.8541,E,1,10,1.4,61.2,M,0.0,M,,*58
$GNGLL,3402.8319,S,01826.8541,E,130142.000,A,A*5C
$GPGSA,A,3,08,21,07,01,13,17,30,14,,,,,2.6,1.4,2.2*3C
$BDGSA,A,3,13,08,,,,,,,,,,,2.6,1.4,2.2*28
$GPGSV,3,1,10,01,64,050,33,07,59,344,42,08,34,132,29,13,08,232,23*7E
$GPGSV,3,2,10,14,40,227,40,17,28,286,40,19,05,296,,21,61,103,30*7A
$GPGSV,3,3,10,28,,,31,30,60,263,40*46
$BDGSV,1,1,02,08,30,129,20,13,36,115,23*6A
$GNRMC,130142.000,A,3402.8319,S,01826.8541,E,0.00,0.00,100922,,,A*63
Target
Lat#-3404722#Long#1844757#Bearing#161.57
Current:
Lat#-3404719#Long#1844756#Bearing#0.00
Errors:
Dist#3#Bearing_Error#161.57
Motors:
Throttle%#0#Steering%#100#Left_DC#75.00#Right_DC#75.00


$GNVTG,0.00,T,,M,0.00,N,0.00,K,A*23
$GNZDA,130142.000,10,09,2022,00,00*47
$GPTXT,01,01,01,ANTENNA OK*35
$GNGGA,130143.000,34$GNGGA,130145.000,3402.8319,S,01826.8541,E,1,10,1.4,61.2,M,0.0,M,,*5F
$GNGLL,3402.8319,S,01826.8541,E,130145.000,A,A*5B
$GPGSA,A,3,08,21,07,01,13,17,30,14,,,,,2.6,1.4,2.2*3C
$BDGSA,A,3,13,08,,,,,,,,,,,2.6,1.4,2.2*28
$GPGSV,3,1,10,01,64,050,35,07,59,344,47,08,34,132,28,13,08,232,23*7C
$GPGSV,3,2,10,14,40,227,36,17,28,286,40,19,05,296,,21,61,103,34*7F
$GPGSV,3,3,10,28,,,31,30,60,263,43*45
$BDGSV,1,1,02,08,30,129,20,13,36,115,23*6A
$GNRMC,130145.000,A,3402.8319,S,01826.8541,E,0.00,0.00,100922,,,A*64
Target
Lat#-3404722#Long#1844757#Bearing#161.57
Current:
Lat#-3404719#Long#1844756#Bearing#0.00
Errors:
Dist#3#Bearing_Error#161.57
Motors:
Throttle%#0#Steering%#100#Left_DC#75.00#Right_DC#75.00


$GNVTG,0.00,T,,M,0.00,N,0.00,K,A*23
$GNZDA,130145.000,10,09,2022,00,00*40
$GPTXT,01,01,01,ANTENNA OK*35
$GNGGA,130146.000,34$GNGGA,130148.000,3402.8318,S,01826.8528,E,1,10,1.4,60.8,M,0.0,M,,*57
$GNGLL,3402.8318,S,01826.8528,E,130148.000,A,A*58
$GPGSA,A,3,08,21,07,01,13,17,30,14,,,,,2.6,1.4,2.2*3C
$BDGSA,A,3,13,08,,,,,,,,,,,2.6,1.4,2.2*28
$GPGSV,3,1,10,01,64,050,42,07,59,344,42,08,34,132,29,13,08,232,24*7F
$GPGSV,3,2,10,14,40,227,36,17,28,286,39,19,05,296,,21,61,103,38*7D
$GPGSV,3,3,10,28,,,32,30,60,263,43*46
$BDGSV,1,1,02,08,30,129,19,13,36,115,22*61
$GNRMC,130148.000,A,3402.8318,S,01826.8528,E,0.64,0.00,100922,,,A*65
Target
Lat#-3404722#Long#1844757#Bearing#135.00
Current:
Lat#-3404719#Long#1844754#Bearing#0.00
Errors:
Dist#4#Bearing_Error#135.00
Motors:
Throttle%#0#Steering%#100#Left_DC#75.00#Right_DC#75.00


$GNVTG,0.00,T,,M,0.64,N,1.18,K,A*29
$GNZDA,130148.000,10,09,2022,00,00*4D
$GPTXT,01,01,01,ANTENNA OK*35
$GNGGA,130149.000,34$GNGGA,130151.000,3402.8322,S,01826.8517,E,1,10,1.4,60.0,M,0.0,M,,*52
$GNGLL,3402.8322,S,01826.8517,E,130151.000,A,A*55
$GPGSA,A,3,08,21,07,01,13,17,30,14,,,,,2.6,1.4,2.2*3C
$BDGSA,A,3,13,08,,,,,,,,,,,2.6,1.4,2.2*28
$GPGSV,3,1,10,01,64,050,42,07,59,344,44,08,34,132,34,13,08,232,24*75
$GPGSV,3,2,10,14,40,227,32,17,28,286,38,19,05,296,,21,61,103,29*78
$GPGSV,3,3,10,28,,,27,30,60,263,45*44
$BDGSV,1,1,02,08,30,129,28,13,36,115,32*62
$GNRMC,130151.000,A,3402.8322,S,01826.8517,E,0.84,0.00,100922,,,A*66
Target
Lat#-3404722#Long#1844757#Bearing#111.80
Current:
Lat#-3404720#Long#1844752#Bearing#0.00
Errors:
Dist#5#Bearing_Error#111.80
Motors:
Throttle%#0#Steering%#100#Left_DC#75.00#Right_DC#75.00


$GNVTG,0.00,T,,M,0.84,N,1.56,K,A*2D
$GNZDA,130151.000,10,09,2022,00,00*45
$GPTXT,01,01,01,ANTENNA OK*35
$GNGGA,130152.000,34$GNGGA,130154.000,3402.8323,S,01826.8501,E,1,10,1.4,62.8,M,0.0,M,,*5B
$GNGLL,3402.8323,S,01826.8501,E,130154.000,A,A*56
$GPGSA,A,3,08,21,07,01,13,17,30,14,,,,,2.6,1.4,2.2*3C
$BDGSA,A,3,13,08,,,,,,,,,,,2.6,1.4,2.2*28
$GPGSV,3,1,10,01,64,050,44,07,59,344,44,08,34,132,29,13,08,232,23*78
$GPGSV,3,2,10,14,40,227,33,17,28,286,39,19,05,296,,21,61,103,35*75
$GPGSV,3,3,10,28,,,28,30,60,263,44*4A
$BDGSV,1,1,02,08,30,129,24,13,36,115,27*6A
$GNRMC,130154.000,A,3402.8323,S,01826.8501,E,1.14,0.00,100922,,,A*6D
Target
Lat#-3404722#Long#1844757#Bearing#105.95
Current:
Lat#-3404720#Long#1844750#Bearing#0.00
Errors:
Dist#8#Bearing_Error#105.95
Motors:
Throttle%#0#Steering%#100#Left_DC#75.00#Right_DC#75.00


$GNVTG,0.00,T,,M,1.14,N,2.11,K,A*25
$GNZDA,130154.000,10,09,2022,00,00*40
$GPTXT,01,01,01,ANTENNA OK*35
$GNGGA,130155.000,34$GNGGA,130157.000,3402.8315,S,01826.8493,E,1,10,1.4,63.2,M,0.0,M,,*5C
$GNGLL,3402.8315,S,01826.8493,E,130157.000,A,A*5A
$GPGSA,A,3,08,21,07,01,13,17,30,14,,,,,2.6,1.4,2.2*3C
$BDGSA,A,3,13,08,,,,,,,,,,,2.6,1.4,2.2*28
$GPGSV,3,1,10,01,64,050,45,07,59,344,45,08,34,132,40,13,08,232,23*77
$GPGSV,3,2,10,14,40,227,40,17,28,286,29,19,05,296,,21,61,104,41*74
$GPGSV,3,3,10,28,,,30,30,60,263,40*47
$BDGSV,1,1,02,08,30,129,30,13,36,115,38*61
$GNRMC,130157.000,A,3402.8315,S,01826.8493,E,1.07,0.00,100922,,,A*63
Target
Lat#-3404722#Long#1844757#Bearing#108.43
Current:
Lat#-3404719#Long#1844748#Bearing#0.00
Errors:
Dist#10#Bearing_Error#108.43
Motors:
Throttle%#100#Steering%#100#Left_DC#100.00#Right_DC#50.00


$GNVTG,0.00,T,,M,1.07,N,1.98,K,A*25
$GNZDA,130157.000,10,09,2022,00,00*43
$GPTXT,01,01,01,ANTENNA OK*35
$GNGGA,130158.000,34$GNGGA,130200.000,3402.8300,S,01826.8490,E,1,10,1.4,62.7,M,0.0,M,,*5E
$GNGLL,3402.8300,S,01826.8490,E,130200.000,A,A*5C
$GPGSA,A,3,08,21,07,01,13,17,30,14,,,,,2.6,1.4,2.2*3C
$BDGSA,A,3,13,08,,,,,,,,,,,2.6,1.4,2.2*28
$GPGSV,3,1,10,01,64,050,45,07,59,344,46,08,34,132,35,13,08,232,23*76
$GPGSV,3,2,10,14,40,227,39,17,28,286,29,19,05,296,,21,61,104,43*78
$GPGSV,3,3,10,28,,,35,30,60,263,38*4D
$BDGSV,1,1,02,08,30,129,30,13,36,115,38*61
$GNRMC,130200.000,A,3402.8300,S,01826.8490,E,1.27,0.00,100922,,,A*67
Target
Lat#-3404722#Long#1844757#Bearing#123.69
Current:
Lat#-3404716#Long#1844748#Bearing#0.00
Errors:
Dist#12#Bearing_Error#123.69
Motors:
Throttle%#100#Steering%#100#Left_DC#100.00#Right_DC#50.00


$GNVTG,0.00,T,,M,1.27,N,2.36,K,A*20
$GNZDA,130200.000,10,09,2022,00,00*42
$GPTXT,01,01,01,ANTENNA OK*35
$GNGGA,130201.000,34$GNGGA,130203.000,3402.8290,S,01826.8491,E,1,10,1.4,62.6,M,0.0,M,,*55
$GNGLL,3402.8290,S,01826.8491,E,130203.000,A,A*56
$GPGSA,A,3,08,21,07,01,13,17,30,14,,,,,2.6,1.4,2.2*3C
$BDGSA,A,3,13,08,,,,,,,,,,,2.6,1.4,2.2*28
$GPGSV,3,1,10,01,64,050,44,07,59,344,36,08,34,132,36,13,08,232,25*75
$GPGSV,3,2,10,14,40,227,36,17,28,286,39,19,05,296,,21,61,104,45*70
$GPGSV,3,3,10,28,,,30,30,60,263,34*44
$BDGSV,1,1,02,08,30,129,34,13,36,115,38*65
$GNRMC,130203.000,A,3402.8290,S,01826.8491,E,1.16,0.00,100922,,,A*6F
Target
Lat#-3404722#Long#1844757#Bearing#127.87
Current:
Lat#-3404715#Long#1844748#Bearing#0.00
Errors:
Dist#12#Bearing_Error#127.87
Motors:
Throttle%#100#Steering%#100#Left_DC#100.00#Right_DC#50.00


$GNVTG,0.00,T,,M,1.16,N,2.15,K,A*23
$GNZDA,130203.000,10,09,2022,00,00*41
$GPTXT,01,01,01,ANTENNA OK*35
$GNGGA,130204.000,34$GNGGA,130206.000,3402.8281,S,01826.8505,E,1,10,1.4,61.8,M,0.0,M,,*51
$GNGLL,3402.8281,S,01826.8505,E,130206.000,A,A*5F
$GPGSA,A,3,08,21,07,01,13,17,30,14,,,,,2.6,1.4,2.2*3C
$BDGSA,A,3,13,08,,,,,,,,,,,2.6,1.4,2.2*28
$GPGSV,3,1,10,01,64,050,37,07,59,344,27,08,34,132,38,13,08,232,25*7F
$GPGSV,3,2,10,14,40,227,37,17,28,286,29,19,05,296,,21,61,104,46*73
$GPGSV,3,3,10,28,,,36,30,60,263,30*46
$BDGSV,1,1,02,08,30,129,28,13,36,115,33*63
$GNRMC,130206.000,A,3402.8281,S,01826.8505,E,1.09,0.00,100922,,,A*68
Target
Lat#-3404722#Long#1844757#Bearing#142.13
Current:
Lat#-3404713#Long#1844750#Bearing#0.00
Errors:
Dist#12#Bearing_Error#142.13
Motors:
